"관리기관명",소재지도로명주소,소재지지번주소,설치목적구분,카메라대수,카메라화소수,촬영방면정보,보관일수,설치년월,관리기관전화번호,위도,경도,데이터기준일자
"대전광역시 서구청",대전광역시 서구 오량1길 40(복수동),대전광역시 서구 복수동 283-38 해피플러스 앞,쓰레기단속,1,,,5,2017-11,042-288-3574,36.310448,127.375772,2019-01-04
"대전광역시 서구청",대전광역시 서구 복수동 781(복수동),대전광역시 서구 복수동 781 공영주차장 옆,쓰레기단속,1,,,5,2018-05,042-288-3574,36.297749,127.378139,2019-01-04
"대전광역시 서구청",대전광역시 서구 복수동로 96-19(복수동),대전광역시 서구 복수동 812 해운빌딩 옆,쓰레기단속,1,,,5,2018-05,042-288-3574,36.296489,127.376259,2019-01-04
"대전광역시 서구청",대전광역시 서구 복수동로88번길 20(복수동),대전광역시 서구 복수동 762 해피하우스 옆,쓰레기단속,1,,,5,2018-05,042-288-3574,36.297309,127.376582,2019-01-04
"대전광역시 서구청",대전광역시 서구 복수동로52번길 140(복수동),대전광역시 서구 복수동 556 에메니티빌 앞,쓰레기단속,1,,,5,2018-05,042-288-3574,36.299706,127.374451,2019-01-04
"대전광역시 서구청",대전광역시 서구 복수동로52번길 72(복수동),대전광역시 서구 복수동 초록마을 501동 뒤,쓰레기단속,1,,,5,2018-05,042-288-3574,36.298995,127.375169,2019-01-04
"대전광역시 서구청",대전광역시 서구 오량4길 55(복수동),대전광역시 서구 복수동 283-292 행복한어린이집 앞,쓰레기단속,1,,,5,2018-05,042-288-3574,36.308925,127.377464,2019-01-04
"대전광역시 서구청",대전광역시 서구 배재로186번길 12(도마동),대전광역시 서구 도마동 24-40 복음맨션 2동 앞,쓰레기단속,1,,,5,2017-11,042-288-3574,36.325036,127.371148,2019-01-04
"대전광역시 서구청",대전광역시 서구 사마6길 103(도마동),대전광역시 서구 도마동 107-15 주택가,쓰레기단속,1,,,5,2018-12,042-288-3574,36.3189659,127.374261,2019-01-04
"대전광역시 서구청",대전광역시 서구 도마동 62-10(도마동),대전광역시 서구 도마동 로즈미용실 앞,쓰레기단속,1,,,5,2017-09,042-288-3574,36.3194289,127.3410463000,2019-01-04
"대전광역시 서구청",대전광역시 서구 조달청길 141(도마동),대전광역시 서구 도마동 80-13 신한빌딩 앞,쓰레기단속,1,,,5,2018-05,042-288-3574,36.319251,127.380306,2019-01-04
"대전광역시 서구청",대전광역시 서구 계백로1300번길 43(정림동),대전광역시 서구 정림동 18-16 강변경로당 옆,쓰레기단속,1,,,5,2015-10,042-288-3574,36.306369,127.3679338,2019-01-04
"대전광역시 서구청",대전광역시 서구 괴곡동 323,"대전광역시 서구 정림대교, 오세골교아래",쓰레기단속,1,,,5,2018-05,042-288-3574,36.289284,127.358907,2019-01-04
"대전광역시 서구청",대전광역시 서구 도마로 63(변동),대전광역시 서구 변동 61-3 현대직업전문학교 옆,쓰레기단속,1,,,5,2017-06,042-288-3574,36.322613,127.377211,2019-01-04
"대전광역시 서구청",대전광역시 서구 배재로262번길 60(변동),대전광역시 서구 변동 76-1 봉산중학교 담,쓰레기단속,1,,,5,2018-05,042-288-3574,36.331252,127.372829,2019-01-04
"대전광역시 서구청",대전광역시 서구 배재로233번길 31(변동),대전광역시 서구 변동 253-53 상가주택가,쓰레기단속,1,,,5,2018-12,042-288-3574,36.329861,127.368934,2019-01-04
"대전광역시 서구청",대전광역시 서구 변정7길 39(변동),대전광역시 서구 변동 66-34 주택가,쓰레기단속,1,,,5,2018-06,042-288-3574,36.322472,127.380993,2019-01-04
"대전광역시 서구청",대전광역시 서구 아랫강변9길 92(용문동),대전광역시 서구 용문동 233-1 주택가,쓰레기단속,1,,,5,2017-11,042-288-3574,36.338972,127.398736,2019-01-04
"대전광역시 서구청",대전광역시 서구 도솔로 530(용문동),대전광역시 서구 용문동 224-13 삼성산업사 앞,쓰레기단속,1,,,5,2018-12,042-288-3574,36.339416,127.400412,2019-01-04
"대전광역시 서구청",대전광역시 서구 탄방로7번길 28(탄방동),대전광역시 서구 탄방동 852 탄방초등학교 뒤,쓰레기단속,1,,,5,2016-06,042-288-3574,36.346151,127.391632,2019-01-04
"대전광역시 서구청",대전광역시 서구 남선로9번길 14(탄방동),대전광역시 서구 탄방동 1064 도산서원 옆,쓰레기단속,1,,,5,2018-12,042-288-3574,36.344466,127.395312,2019-01-04
"대전광역시 서구청",대전광역시 서구 둔산로137번길 27(둔산동),대전광역시 서구 둔산동 1471 지엠클럽 앞,쓰레기단속,1,,,5,2016-09,042-288-3574,36.352482,127.389252,2019-01-04
"대전광역시 서구청",대전광역시 서구 문정로170번길(둔산동),대전광역시 서구 둔산동 1811 둔산훼미리타운 뒤,쓰레기단속,1,,,5,2016-05,042-288-3574,36.350744,127.398552,2019-01-04
"대전광역시 서구청",대전광역시 서구 가장로 32(괴정동),대전광역시 서구 괴정동 69-30 안정하우스 앞,쓰레기단속,1,,,5,2016-06,042-288-3574,36.338867,127.379752,2019-01-04
"대전광역시 서구청",대전광역시 서구 도솔로305번길 35(괴정동),대전광역시 서구 괴정동 98-3 크로바8빌라 옆,쓰레기단속,1,,,5,2018-05,042-288-3574,36.336999,127.380471,2019-01-04
"대전광역시 서구청",대전광역시 서구 도솔로327번길 52(괴정동),대전광역시 서구 괴정동 66-19 은성쉐르빌 앞,쓰레기단속,1,,,5,2018-06,042-288-3574,36.338936,127.381624,2019-01-04
"대전광역시 서구청",대전광역시 서구 도산로321번길 11(가장동),대전광역시 서구 가장동 57-16 올리브하우스 옆,쓰레기단속,1,,,5,2017-11,042-288-3574,36.343336,127.371988,2019-01-04
"대전광역시 서구청",대전광역시 서구 신갈마로230번길(갈마동),대전광역시 서구 갈마동 안심택배보관함 앞,쓰레기단속,1,,,5,2017-11,042-288-3574,36.354069,127.371728,2019-01-04
"대전광역시 서구청",대전광역시 서구 계룡로416번길 28(갈마동),대전광역시 서구 갈마동 344-21 물댄동산어린이집 앞,쓰레기단속,1,,,5,2016-06,042-288-3574,36.348904,127.373304,2019-01-04
"대전광역시 서구청",대전광역시 서구 대덕대로 163(갈마동),대전광역시 서구 갈마동 1044 카페파스쿠치 앞 화단,쓰레기단속,1,,,5,2016-06,042-288-3574,36.348011,127.375916,2019-01-04
"대전광역시 서구청",대전광역시 서구 대덕대로 141(갈마동,대전광역시 서구 갈마동 1129 kb은행 앞 화단 녹지대,쓰레기단속,1,,,5,2016-06,042-288-3574,36.345852,127.374945,2019-01-04
"대전광역시 서구청",대전광역시 서구 대덕대로 83-44(갈마동),대전광역시 서구 갈마동 12589 푸른빌라 앞,쓰레기단속,1,,,5,2016-06,042-288-3574,36.345667,127.374881,2019-01-04
"대전광역시 서구청",대전광역시 서구 괴정로11번길 95(갈마동,대전광역시 서구 갈마동 1400 둔원중학교 담장 게시판 옆,쓰레기단속,1,,,5,2016-06,042-288-3574,36.341727,127.377151,2019-01-04
"대전광역시 서구청",대전광역시 서구 갈마중로46번길 29(갈마동),대전광역시 서구 갈마동 1121 단포빌라 앞,쓰레기단속,1,,,5,2016-06,042-288-3574,36.345859,127.373867,2019-01-04
"대전광역시 서구청",대전광역시 서구 대덕대로 93-1(갈마동),대전광역시 서구 갈마동 1255 도담하우스 앞,쓰레기단속,1,,,5,2017-06,042-288-3574,36.342084,127.373399,2019-01-04
"대전광역시 서구청",대전광역시 서구 갈마중로 28(갈마동)(갈마동345-1),대전광역시 서구 갈마동 345-1 두리빌 앞,쓰레기단속,1,,,5,2017-06,042-288-3574,36.347608,127.372324,2019-01-04
"대전광역시 서구청",대전광역시 서구 대덕대로151번길 20(갈마동),대전광역시 서구 갈마동 994 길섶주택 앞,쓰레기단속,1,,,5,2017-06,042-288-3574,36.347881,127.373898,2019-01-04
"대전광역시 서구청",대전광역시 서구 갈마중로 8(갈마동),대전광역시 서구 갈마동 361-17 신통치킨 앞,쓰레기단속,1,,,5,2017-11,042-288-3574,36.347527,127.370245,2019-01-04
"대전광역시 서구청",대전광역시 서구 갈마중로42번길 39(갈마동),대전광역시 서구 갈마동 1150 수제왕돈까스 옆,쓰레기단속,1,,,5,2017-11,042-288-3574,36.345863,127.373483,2019-01-04
"대전광역시 서구청",대전광역시 서구 갈마중로 47(갈마동),대전광역시 서구 갈마동 986 대전제일교회 담장,쓰레기단속,1,,,5,2018-05,042-288-3574,36.347426,127.374821,2019-01-04
"대전광역시 서구청",대전광역시 서구 대덕대로 105-6(갈마동),대전광역시 서구 갈마동 1219 둔원고등학교 담,쓰레기단속,1,,,5,2018-05,042-288-3574,36.343174,127.373832,2019-01-04
"대전광역시 서구청",대전광역시 서구 벌곡로 1346(가수원동),대전광역시 서구 가수원동 512-1 부원공업 뒤,쓰레기단속,1,,,5,2016-06,042-288-3574,36.301055,127.356456,2019-01-04
"대전광역시 서구청",대전광역시 서구 도안북로 97(도안동),대전광역시 서구 도안동 876 배부장찌개가 옆,쓰레기단속,1,,,5,2018-06,042-288-3574,36.3303675381,127.339437138,2019-01-04
"대전광역시 서구청",대전광역시 서구 도안북로118번길 21(도안동),대전광역시 서구 도안동 한라비발디 106동옆 쪽문,쓰레기단속,1,,,5,2018-12,042-288-3574,36.3291820944,127.341788659,2019-01-04
"대전광역시 서구청",대전광역시 서구 월평로13번길 29(월평동),대전광역시 서구 월평동 315 강변빌라 옆,쓰레기단속,1,,,5,2016-01,042-288-3574,36.356638,127.358112,2019-01-04
"대전광역시 서구청",대전광역시 서구 월평로13번길 42(월평동),대전광역시 서구 월평동 375 녹지대,쓰레기단속,1,,,5,2016-01,042-288-3574,36.357012,127.358637,2019-01-04
"대전광역시 서구청",대전광역시 서구 월평로13번길 78(월평동),대전광역시 서구 월평동 417 우정빌라 앞,쓰레기단속,1,,,5,2016-01,042-288-3574,36.357922,127.360229,2019-01-04
"대전광역시 서구청",대전광역시 서구 월평중로13번길 36(월평동),대전광역시 서구 월평동 540 월평역 1번출구 앞,쓰레기단속,1,,,5,2016-01,042-288-3574,36.357947,127.364597,2019-01-04
"대전광역시 서구청",대전광역시 서구 한밭대로602번길 1(월평동),대전광역시 서구 월평동 604 태평빌딩 앞,쓰레기단속,1,,,5,2016-01,042-288-3574,36.357735,127.365977,2019-01-04
"대전광역시 서구청",대전광역시 서구 월평중로24번길 54(월평동),대전광역시 서구 월평동 660 월평중학교 담장,쓰레기단속,1,,,5,2016-01,042-288-3574,36.356592,127.366991,2019-01-04
"대전광역시 서구청",대전광역시 서구 월평중로4번길 67(월평동),대전광역시 서구 월평동 763 녹지대,쓰레기단속,1,,,5,2016-01,042-288-3574,36.354223,127.367871,2019-01-04
"대전광역시 서구청",대전광역시 서구 계룡로339번길 7(월평동),대전광역시 서구 월평동 770 스피드카피 앞,쓰레기단속,1,,,5,2016-01,042-288-3574,36.354504,127.366821,2019-01-04
"대전광역시 서구청",대전광역시 서구 월평중로4번길 11(월평동),대전광역시 서구 월평동 828 골목?냉면집 앞,쓰레기단속,1,,,5,2016-01,042-288-3574,36.354748,127.364618,2019-01-04
"대전광역시 서구청",대전광역시 서구 월평중로3번길 8(월평동),대전광역시 서구 월평동 874 쌍둥이빌라 앞,쓰레기단속,1,,,5,2016-01,042-288-3574,36.3546819,127.363394,2019-01-04
"대전광역시 서구청",대전광역시 서구 월평중로3번길 26(월평동),대전광역시 서구 월평동 946 돌식당 앞,쓰레기단속,1,,,5,2016-01,042-288-3574,36.354422,127.362436,2019-01-04
"대전광역시 서구청",대전광역시 서구 월평로 26(월평동),대전광역시 서구 월평동 1020 녹지대,쓰레기단속,1,,,5,2016-01,042-288-3574,36.356063,127.360047,2019-01-04
"대전광역시 서구청",대전광역시 서구 월평중로13번길 53(월평동),대전광역시 서구 월평동 1041 성당 북동쪽 코너,쓰레기단속,1,,,5,2016-01,042-288-3574,36.355582,127.361012,2019-01-04
"대전광역시 서구청",대전광역시 서구 월평동 1046번지(월평동),대전광역시 서구 월평동 섬말공원 남동코너,쓰레기단속,1,,,5,2016-01,042-288-3574,36.354943,127.361051,2019-01-04
"대전광역시 서구청",대전광역시 서구 월평동 1052번지(월평동),대전광역시 서구 월평동 섬말공원 남서쪽,쓰레기단속,1,,,5,2016-01,042-288-3574,36.3547449,127.3606139,2019-01-04
"대전광역시 서구청",대전광역시 서구 월평중로3번길 56(월평동),대전광역시 서구 월평동 1074 녹지대,쓰레기단속,1,,,5,2016-01,042-288-3574,36.354152,127.360875,2019-01-04
"대전광역시 서구청",대전광역시 서구 월평중로3번길 78(월평동),대전광역시 서구 월평동 1082 주찬양교회 부근,쓰레기단속,1,,,5,2016-01,042-288-3574,36.353951,127.359616,2019-01-04
"대전광역시 서구청",대전광역시 서구 월평중로3번길 90(월평동),대전광역시 서구 월평동 1086 녹지대,쓰레기단속,1,,,5,2016-01,042-288-3574,36.353855,127.359013,2019-01-04
"대전광역시 서구청",대전광역시 서구 월평동 1185(월평동),대전광역시 서구 월평동 동주민센터 옆 공영주차장,쓰레기단속,1,,,5,2016-01,042-288-3574,36.355334,127.356891,2019-01-04
"대전광역시 서구청",대전광역시 서구 월평새뜸로20번길 84(월평동),대전광역시 서구 월평동 194 모아빌라 옆,쓰레기단속,1,,,5,2016-01,042-288-3574,36.355381,127.356283,2019-01-04
"대전광역시 서구청",대전광역시 서구 월평새뜸로20번길 66(월평동),대전광역시 서구 월평동 1201 보루네오 건물 앞,쓰레기단속,1,,,5,2016-01,042-288-3574,36.354846,127.355477,2019-01-04
"대전광역시 서구청",대전광역시 서구 월평새뜸로8번길 73-14(월평동),대전광역시 서구 월평동 1238 한영빌라 앞,쓰레기단속,1,,,5,2016-01,042-288-3574,36.354537,127.356843,2019-01-04
"대전광역시 서구청",대전광역시 서구 월평새뜸로8번길 61-12(월평동),대전광역시 서구 월평동 1271 지음빌라 옆,쓰레기단속,1,,,5,2016-01,042-288-3574,36.354185,127.356205,2019-01-04
"대전광역시 서구청",대전광역시 서구 월평새뜸로4번길 51(월평동),대전광역시 서구 월평동 1298 우정맨션 앞,쓰레기단속,1,,,5,2016-01,042-288-3574,36.353107,127.355919,2019-01-04
"대전광역시 서구청",대전광역시 서구 월평새뜸로20번길 56(월평동),대전광역시 서구 월평동 1348 갑천역 1번출구쪽,쓰레기단속,1,,,5,2016-01,042-288-3574,36.354569,127.355087,2019-01-04
"대전광역시 서구청",대전광역시 서구 월평새뜸로20번길 38(월평동),대전광역시 서구 월평동 1356 갑천역 2번출구쪽,쓰레기단속,1,,,5,2016-01,042-288-3574,36.353987,127.354192,2019-01-04
"대전광역시 서구청",대전광역시 서구 월평새뜸로20번길 34(월평동),대전광역시 서구 월평동 1356 갑천역 2번출구쪽,쓰레기단속,1,,,5,2016-01,042-288-3574,36.3538162,127.354094,2019-01-04
"대전광역시 서구청",대전광역시 서구 월평동 1536,대전광역시 서구 월평동 패션월드 지하주차장 입구,쓰레기단속,1,,,5,2016-01,042-288-3574,36.352879,127.352624,2019-01-04
"대전광역시 서구청",대전광역시 서구 계룡로264번길 28-26(월평동),대전광역시 서구 월평동 19-37 명진타운 앞,쓰레기단속,1,,,5,2016-01,042-288-3574,36.352118,127.360551,2019-01-04
"대전광역시 서구청",대전광역시 서구 월평동 78-2,대전광역시 서구 월평동 동산기획 입구 공원옆,쓰레기단속,1,,,5,2016-01,042-288-3574,36.3414828,127.3535159,2019-01-04
"대전광역시 서구청",대전광역시 서구 월평새뜸로20번길 14(월평동),대전광역시 서구 월평동 1363 대한교회 옆,쓰레기단속,1,,,5,2016-06,042-288-3574,36.353136,127.353069,2019-01-04
"대전광역시 서구청",대전광역시 서구 월평로13번길 94(월평동),대전광역시 서구 월평동 424 대원건물 앞,쓰레기단속,1,,,5,2016-06,042-288-3574,36.358098,127.361027,2019-01-04
"대전광역시 서구청",대전광역시 서구 월평동 630,대전광역시 서구 월평동 동남타운 옆 소공원 입구,쓰레기단속,1,,,5,2016-06,042-288-3574,36.3563966,127.3659786,2019-01-04
"대전광역시 서구청",대전광역시 서구 월평중로14번길 57(월평동),대전광역시 서구 월평동 697 한림주택 앞,쓰레기단속,1,,,5,2016-06,042-288-3574,36.355703,127.367088,2019-01-04
"대전광역시 서구청",대전광역시 서구 계룡로349번길 37(월평동,대전광역시 서구 월평동 727 선희주택 옆,쓰레기단속,1,,,5,2016-06,042-288-3574,36.355618,127.367989,2019-01-04
"대전광역시 서구청",대전광역시 서구 청사로123번길 25(월평동),대전광역시 서구 월평동 279 선사유적지 담당,쓰레기단속,1,,,5,2016-01,042-288-3574,36.361115,127.377497,2019-01-04
"대전광역시 서구청",대전광역시 서구 월평중로 55(월평동),대전광역시 서구 월평동 313 은평공원 입구,쓰레기단속,1,,,5,2016-01,042-288-3574,36.359664,127.363909,2019-01-04
"대전광역시 서구청",대전광역시 서구 월평동동로 83(월평동),대전광역시 서구 월평동 311 다모아아파트 상가 앞,쓰레기단속,1,,,5,2016-01,042-288-3574,36.362709,127.367974,2019-01-04
"대전광역시 서구청",대전광역시 서구 만년남로3번길 21(만년동),대전광역시 서구 만년동 270 한밭하이츠 앞,쓰레기단속,1,,,5,2016-01,042-288-3574,36.365399,127.375347,2019-01-04
"대전광역시 서구청",대전광역시 서구 만년남로3번길 145(만년동),대전광역시 서구 만년동 10 만년고 담장,쓰레기단속,1,,,5,2016-01,042-288-3574,36.367097,127.372465,2019-01-04
"대전광역시 서구청",대전광역시 서구 만년남로11번길 50(만년동),대전광역시 서구 만년동 156 만년어리이집 앞,쓰레기단속,1,,,5,2016-01,042-288-3574,36.366263,127.373632,2019-01-04
"대전광역시 서구청",대전광역시 서구 만년동 319 (만년동),대전광역시 서구 만년동 319오피스텔 리체스 앞,쓰레기단속,1,,,5,2018-12,042-288-3574,36.368415,127.382231,2019-01-04
"대전광역시 서구청",대전광역시 서구 월드컵대로480(지하철본부),대전광역시 서구 월평동 160-20,교통단속,3,,360도 전방면,30,2009-02,042-270-5365,36.348394,127.352746,2019-01-04
"대전광역시 서구청",대전광역시 서구 정림로66번길3(우성아파트),대전광역시 서구 정림동 546,교통단속,3,,360도 전방면,30,2009-02,042-270-5365,36.306405,127.365289,2019-01-04
"대전광역시 서구청",대전광역시 서구 둔산로133(현대아이텔),대전광역시 서구 둔산동 1457,교통단속,3,,360도 전방면,30,2009-02,042-270-5365,36.3515604,127.388785,2019-01-04
"대전광역시 서구청",대전광역시 서구 문예로33(목련네거리),대전광역시 서구 둔산동 1496,교통단속,3,,360도 전방면,30,2009-02,042-270-5365,36.349637,127.389843,2019-01-04
"대전광역시 서구청",대전광역시 서구 월평중로1(대전일보),대전광역시 서구 월평동 873,교통단속,5,,360도 전방면,30,2009-12,042-270-5365,36.354727,127.363727,2019-01-04
"대전광역시 서구청",대전광역시 서구 둔산중로19(샤크존),대전광역시 서구 탄방동 590,교통단속,5,,360도 전방면,30,2011-02,042-270-5365,36.348192,127.3861801,2019-01-04
"대전광역시 서구청",대전광역시 서구 대덕대로191(모태크리닉),대전광역시 서구 둔산동 1045,교통단속,5,,360도 전방면,30,2011-02,042-270-5365,36.350358,127.377378,2019-01-04
"대전광역시 서구청",대전광역시 서구 한밭대로570번길26(이마트),대전광역시 서구 월평동 495,교통단속,4,,360도 전방면,30,2011-07,042-270-5365,36.357222,127.361834,2019-01-04
"대전광역시 서구청",대전광역시 서구 한밭대로755(삼성생명),대전광역시 서구 둔산동 948,교통단속,4,,360도 전방면,30,2011-12,042-270-5365,36.358255,127.382463,2019-01-04
"대전광역시 서구청",대전광역시 서구 가장로106(래미안아파트),대전광역시 서구 가장동 55,교통단속,3,,360도 전방면,30,2011-12,042-270-5365,36.333681,127.384311,2019-01-04
"대전광역시 서구청",대전광역시 서구 원도안로200(도안초등학교),대전광역시 서구 도안동 1363,교통단속,4,,360도 전방면,30,2011-12,042-270-5365,36.321634,127.3446688,2019-01-04
"대전광역시 서구청",대전광역시 서구 대덕대로415(테크노월드),대전광역시 서구 만년동 1,교통단속,3,,360도 전방면,30,2012-04,042-270-5365,36.369671,127.378038,2019-01-04
"대전광역시 서구청",대전광역시 서구 둔산중로8(로데오타운),대전광역시 서구 탄방동 700,교통단속,4,,360도 전방면,30,2012-04,042-270-5365,36.347295,127.387285,2019-01-04
"대전광역시 서구청",대전광역시 서구 문정로122(공작한양아파트),대전광역시 서구 탄방동 842,교통단속,3,,360도 전방면,30,2012-04,042-270-5365,36.346464,127.392772,2019-01-04
"대전광역시 서구청",대전광역시 서구 복수동로52(초록마을아파트),대전광역시 서구 복수동 488,교통단속,5,,360도 전방면,30,2012-04,042-270-5365,36.299768,127.378344,2019-01-04
"대전광역시 서구청",대전광역시 서구 정림로55(수밋들공원),대전광역시 서구 정림동 584,교통단속,4,,360도 전방면,30,2012-04,042-270-5365,36.304875,127.364258,2019-01-04
"대전광역시 서구청",대전광역시 서구 계룡로598(탄방네거리),대전광역시 서구 괴정동 423-1,교통단속,5,,360도 전방면,30,2013-05,042-270-5365,36.340842,127.389287,2019-01-04
"대전광역시 서구청",대전광역시 서구 월평북로90(일산빌딩삼거리),대전광역시 서구 월평동 246,교통단속,4,,360도 전방면,30,2013-05,042-270-5365,36.361664,127.378427,2019-01-04
"대전광역시 서구청",대전광역시 서구 월평중로3번길99(마이웨딩홀),대전광역시 서구 월평동1130,교통단속,4,,360도 전방면,30,2013-05,042-270-5365,36.3542181,127.3586739,2019-01-04
"대전광역시 서구청",대전광역시 서구 대덕대로185번길30(갤러리아옥외주차장),대전광역시 서구 둔산동1064,교통단속,5,,360도 전방면,30,2013-05,042-270-5365,36.350516,127.376019,2019-01-04
"대전광역시 서구청",대전광역시 서구 둔산북로30(이마트둔산점),대전광역시 서구 둔산동 965,교통단속,5,,360도 전방면,30,2013-05,042-270-5365,36.355571,127.377813,2019-01-04
"대전광역시 서구청",대전광역시 서구 갈마중로15(서부소방서),대전광역시 서구 갈마동343-58,교통단속,3,,360도 전방면,30,2013-05,042-270-5365,36.347866,127.371124,2019-01-04
"대전광역시 서구청",대전광역시 서구 둔산로155(문정네거리),대전광역시 서구 둔산동 1509,교통단속,5,,360도 전방면,30,2013-01,042-270-5365,36.3523040,127.3928594,2019-01-04
"대전광역시 서구청",대전광역시 서구 문정로90(세이탄방점),대전광역시 서구 탄방동 754,교통단속,4,,360도 전방면,30,2016-06,042-270-5365,36.346418,127.3891897,2019-01-04
"대전광역시 서구청",대전광역시 서구 청사로128(칼릭스),대전광역시 서구 월평동 282-3,교통단속,5,,360도 전방면,30,2017-06,042-270-5365,36.359402,127.377837,2019-01-04
"대전광역시 서구청",대전광역시 서구 도안북로107(남대전농협),대전광역시 서구 도안동 880,교통단속,4,,360도 전방면,30,2017-06,042-270-5365,36.3303655,127.3407024,2019-01-04
"대전광역시 서구청",대전광역시 서구 동서대로682(스타벅스),대전광역시 서구 도안동 849,교통단속,5,,360도 전방면,30,2017-06,042-270-5365,36.3318081,127.3386164,2019-01-04
"대전광역시 서구청",대전광역시 서구 원도안로16(지산프라자),대전광역시 서구 가수원동 1028,교통단속,5,,360도 전방면,30,2017-06,042-270-5365,36.3192255,127.3445420,2019-01-04
"대전광역시 서구청",대전광역시 서구 구봉로147번길64(느리울유치원),대전광역시 서구 관저동 1342,교통단속,5,,360도 전방면,30,2017-06,042-270-5365,36.299256,127.338673,2019-01-04
"대전광역시 서구청",대전광역시 서구 갈마중로 47(제일교회),대전광역시 서구 갈마동 986,교통단속,4,,360도 전방면,30,2017-06,042-270-5365,36.347331,127.374617,2019-01-04
"대전광역시 서구청",대전광역시 서구 대덕대로 222(삼성전자서비스센터),대전광역시 서구 둔산동 1361,교통단속,5,,360도 전방면,30,2018-06,042-270-5365,36.352363,127.3797399,2019-01-04
"대전광역시 서구청",대전광역시 서구 구봉로 122(순복음예광교회),대전광역시 서구 관저동 1550-1,교통단속,3,,360도 전방면,30,2018-06,042-270-5365,36.3029737,127.3647718,2019-01-04
"대전광역시 서구청",대전광역시 서구 구봉로 133(에스프라자),대전광역시 서구 관저동 1542,교통단속,5,,360도 전방면,30,2018-06,042-270-5365,36.3041947,127.3524127,2019-01-04
"대전광역시 서구청",대전광역시 서구 관저동 1539(노브랜드),대전광역시 서구 관저동 1539,교통단속,4,,360도 전방면,30,2018-06,042-270-5365,36.294499,127.332929,2019-01-04
"대전광역시 서구청",대전광역시 서구 원도안로 43(우미프라자),대전광역시 서구 가수원동 850,교통단속,5,,360도 전방면,30,2018-06,042-270-5365,36.3080270917,127.347650955,2019-01-04
"대전광역시 서구청",대전광역시 서구 도안동로 177(수목토아파트),대전광역시 서구 도안동 1364,교통단속,3,,360도 전방면,30,2018-06,042-270-5365,36.319719,127.346017,2019-01-04
"대전광역시 서구청",대전광역시 서구 신갈마로 209번길 65(갈마동),대전광역시 서구 갈마동 301-1,생활방범,1,,360도 전방면,30,2006-02,042-288-2672,36.3520826,127.3648259,2019-01-04
"대전광역시 서구청",대전광역시 서구 계룡로 416번길 28(갈마동),대전광역시 서구 갈마동 344-21,생활방범,1,,360도 전방면,30,2006-02,042-288-2672,36.3488951,127.3728867,2019-01-04
"대전광역시 서구청",대전광역시 서구 관저중로 94번길(관저동),대전광역시 서구 관저동 1016,생활방범,1,,360도 전방면,30,2006-02,042-288-2672,36.3004514,127.3352062,2019-01-04
"대전광역시 서구청",대전광역시 서구 도솔로 388번길 8(괴정동),대전광역시 서구 괴정동 423-21,생활방범,2,,360도 전방면,30,2006-02,042-288-2672,36.339914,127.389106,2019-01-04
"대전광역시 서구청",대전광역시 서구 괴정로 11번길 73(갈마동),대전광역시 서구 갈마2동 1416,생활방범,1,,360도 전방면,30,2007-01,042-288-2672,36.341744,127.377117,2019-01-04
"대전광역시 서구청",대전광역시 서구 도솔4길 25(도마동),대전광역시 서구 도마2동 120-29,생활방범,1,,360도 전방면,30,2007-01,042-288-2672,36.316778,127.372328,2019-01-04
"대전광역시 서구청",대전광역시 서구 도솔로 511번길 51(용문동),대전광역시 서구 용문동 215-21,생활방범,1,,360도 전방면,30,2007-01,042-288-2672,36.342031,127.401156,2019-01-04
"대전광역시 서구청",대전광역시 서구 월평중로 13번길 53(월평동),대전광역시 서구 월평1동 1041,생활방범,1,,360도 전방면,30,2007-01,042-288-2672,36.355647,127.361008,2019-01-04
"대전광역시 서구청",대전광역시 서구 신갈마로 230번길 19(갈마동),대전광역시 서구 갈마1동 264-31,생활방범,1,,360도 전방면,30,2007-08,042-288-2672,36.354072,127.370075,2019-01-04
"대전광역시 서구청",대전광역시 서구 갈마중로 28(갈마동),대전광역시 서구 갈마2동 345-1,생활방범,1,,360도 전방면,30,2007-08,042-288-2672,36.347594,127.372281,2019-01-04
"대전광역시 서구청",대전광역시 서구 괴정로 115번길 30(괴정동),대전광역시 서구 괴정동 50-1,생활방범,1,,360도 전방면,30,2007-08,042-288-2672,36.338353,127.3868875,2019-01-04
"대전광역시 서구청",대전광역시 서구 도솔로 349번길 28(괴정동),대전광역시 서구 괴정동 60-15,생활방범,1,,360도 전방면,30,2007-08,042-288-2672,36.339425,127.3843951,2019-01-04
"대전광역시 서구청",대전광역시 서구 도솔로 327번길 12(괴정동),대전광역시 서구 괴정동 79-16,생활방범,1,,360도 전방면,30,2007-08,042-288-2672,36.3376797,127.3832070,2019-01-04
"대전광역시 서구청",대전광역시 서구 바탕들1길 27(도마동),대전광역시 서구 도마1동 138-37,생활방범,1,,360도 전방면,30,2007-08,042-288-2672,36.313042,127.383931,2019-01-04
"대전광역시 서구청",대전광역시 서구 사마6길 79(도마동),대전광역시 서구 도마2동 107-5,생활방범,1,,360도 전방면,30,2007-08,042-288-2672,36.318025,127.374206,2019-01-04
"대전광역시 서구청",대전광역시 서구 계룡로 245번길 40(월평동),대전광역시 서구 월평1동 1204,생활방범,1,,360도 전방면,30,2007-08,042-288-2672,36.354353,127.355469,2019-01-04
"대전광역시 서구청",대전광역시 서구 월평중로 14번길 37(월평동),대전광역시 서구 월평1동 689,생활방범,1,,360도 전방면,30,2007-08,042-288-2672,36.355642,127.366147,2019-01-04
"대전광역시 서구청",대전광역시 서구 문정로 112번안길 8-11(탄방동),대전광역시 서구 탄방동 877,생활방범,1,,360도 전방면,30,2007-08,042-288-2672,36.3452628,127.3921922,2019-01-04
"대전광역시 서구청",대전광역시 서구 벌곡로 1379번길 33(가수원동),대전광역시 서구 가수원동 769-1,생활방범,1,,360도 전방면,30,2008-06,042-288-2672,36.3037550,127.3518844,2019-01-04
"대전광역시 서구청",대전광역시 서구 신갈마로 141번길 10-1(갈마동),대전광역시 서구 갈마1동 377-21,생활방범,1,,360도 전방면,30,2008-06,042-288-2672,36.346172,127.367467,2019-01-04
"대전광역시 서구청",대전광역시 서구 대덕대로 135번길 25(갈마동),대전광역시 서구 갈마2동 1152,생활방범,1,,360도 전방면,30,2008-06,042-288-2672,36.345808,127.373425,2019-01-04
"대전광역시 서구청",대전광역시 서구 갈마중로50번길 72(갈마동),대전광역시 서구 갈마2동 1196,생활방범,1,,360도 전방면,30,2008-06,042-288-2672,36.343789,127.374014,2019-01-04
"대전광역시 서구청",대전광역시 서구 구봉로 147번길 76-3(관저동),대전광역시 서구 관저2동 1304,생활방범,1,,360도 전방면,30,2008-06,042-288-2672,36.300086,127.338303,2019-01-04
"대전광역시 서구청",대전광역시 서구 도마 16길 46(도마동),대전광역시 서구 도마1동 71-48,생활방범,1,,360도 전방면,30,2008-06,042-288-2672,36.320711,127.378806,2019-01-04
"대전광역시 서구청",대전광역시 서구 도마6길 122(도마동),대전광역시 서구 도마1동 87-36,생활방범,1,,360도 전방면,30,2008-06,042-288-2672,36.317519,127.380347,2019-01-04
"대전광역시 서구청",대전광역시 서구 도솔2길 15(도마동),대전광역시 서구 도마2동 109-14,생활방범,1,,360도 전방면,30,2008-06,042-288-2672,36.318097,127.372711,2019-01-04
"대전광역시 서구청",대전광역시 서구 도솔5길 65(도마동),대전광역시 서구 도마2동 161-12,생활방범,1,,360도 전방면,30,2008-06,042-288-2672,36.314158,127.371289,2019-01-04
"대전광역시 서구청",대전광역시 서구 대덕대로 175번길 30 (둔산동),대전광역시 서구 둔산2동 1115,생활방범,1,,360도 전방면,30,2008-06,042-288-2672,36.349939,127.375292,2019-01-04
"대전광역시 서구청",대전광역시 서구 만년남로 11번길 26(만년동),대전광역시 서구 만년동 235,생활방범,1,,360도 전방면,30,2008-06,042-288-2672,36.3663146,127.3751851,2019-01-04
"대전광역시 서구청",대전광역시 서구 도산로 207번길 49(변동),대전광역시 서구 변동 23-52,생활방범,1,,360도 전방면,30,2008-06,042-288-2672,36.3273977,127.3771967,2019-01-04
"대전광역시 서구청",대전광역시 서구 변정3길 18(변동),대전광역시 서구 변동 45-1,생활방범,1,,360도 전방면,30,2008-06,042-288-2672,36.3232816,127.3827235,2019-01-04
"대전광역시 서구청",대전광역시 서구 아랫강길4길 65(용문동),대전광역시 서구 용문동 225-46,생활방범,1,,360도 전방면,30,2008-06,042-288-2672,36.3397244,127.398092,2019-01-04
"대전광역시 서구청",대전광역시 서구 괴정로181번길 37(용문동),대전광역시 서구 용문동 279-9,생활방범,1,,360도 전방면,30,2008-06,042-288-2672,36.334586,127.392256,2019-01-04
"대전광역시 서구청",대전광역시 서구 월평중로13번길 103(월평동),대전광역시 서구 월평1동 1123,생활방범,1,,360도 전방면,30,2008-06,042-288-2672,36.354536,127.358694,2019-01-04
"대전광역시 서구청",대전광역시 서구 월평중로24번길 39(월평동),대전광역시 서구 월평1동 599,생활방범,1,,360도 전방면,30,2008-06,042-288-2672,36.356628,127.365753,2019-01-04
"대전광역시 서구청",대전광역시 서구 월평로90번길 27(월평동),대전광역시 서구 월평1동 721,생활방범,1,,360도 전방면,30,2008-06,042-288-2672,36.354697,127.367669,2019-01-04
"대전광역시 서구청",대전광역시 서구 유등로669번길 28-6(탄방동),대전광역시 서구 탄방동 1347,생활방범,1,,360도 전방면,30,2008-06,042-288-2672,36.3475012,127.400617,2019-01-04
"대전광역시 서구청",대전광역시 서구 도산로 419-17(탄방동),대전광역시 서구 탄방동 75-2,생활방범,1,,360도 전방면,30,2008-06,042-288-2672,36.340922,127.3953605,2019-01-04
"대전광역시 서구청",대전광역시 서구 관저북로92(관저동),대전광역시 서구 관저1동 984-1,생활방범,1,,360도 전방면,30,2008-07,042-288-2672,36.3098696,127.337222,2019-01-04
"대전광역시 서구청",대전광역시 서구 관저로196(관저동),대전광역시 서구 관저2동 1397,생활방범,1,,360도 전방면,30,2008-07,042-288-2672,36.299106,127.343389,2019-01-04
"대전광역시 서구청",대전광역시 서구 복수동로 26(복수동),대전광역시 서구 복수동 453,생활방범,1,,360도 전방면,30,2008-07,042-288-2672,36.300775,127.378675,2019-01-04
"대전광역시 서구청",대전광역시 서구 복수동로 26(복수동),대전광역시 서구 복수동 452,생활방범,1,,360도 전방면,30,2008-07,042-288-2672,36.3018897,127.3780576,2019-01-04
"대전광역시 서구청",대전광역시 서구 괴곡길 42( 정림동),대전광역시 서구 괴곡동 361-2,생활방범,1,,360도 전방면,30,2008-07,042-288-2672,36.2946505,127.3614130,2019-01-04
"대전광역시 서구청",대전광역시 서구 괴곡길 42 (정림동),대전광역시 서구 괴곡동 370-2,생활방범,2,,360도 전방면,30,2008-07,042-288-2672,36.295508,127.361006,2019-01-04
"대전광역시 서구청",대전광역시 서구 벌곡로1353번길 27(가수원동),대전광역시 서구 가수원동 773-10,생활방범,1,,360도 전방면,30,2009-05,042-288-2672,36.3016679,127.352953,2019-01-04
"대전광역시 서구청",대전광역시 서구 가장로150(가장동),대전광역시 서구 가장동 25-1,생활방범,2,,360도 전방면,30,2009-05,042-288-2672,36.3307097,127.3883400,2019-01-04
"대전광역시 서구청",대전광역시 서구 신갈마로141번길 45(갈마동),대전광역시 서구 갈마1동 389,생활방범,2,,360도 전방면,30,2009-05,042-288-2672,36.344925,127.366653,2019-01-04
"대전광역시 서구청",대전광역시 서구 대덕대로112번길 10(갈마동),대전광역시 서구 갈마2동 1417,생활방범,1,,360도 전방면,30,2009-05,042-288-2672,36.343069,127.376353,2019-01-04
"대전광역시 서구청",대전광역시 서구 대덕대로 83-74(갈마동),대전광역시 서구 갈마2동 1486,생활방범,1,,360도 전방면,30,2009-05,042-288-2672,36.341319,127.373311,2019-01-04
"대전광역시 서구청",대전광역시 서구 관저동로 161(관저동),대전광역시 서구 관저1동 992,생활방범,1,,360도 전방면,30,2009-05,042-288-2672,36.305825,127.340694,2019-01-04
"대전광역시 서구청",대전광역시 서구 관저로 45(관저동),대전광역시 서구 관저2동 1141,생활방범,1,,360도 전방면,30,2009-05,042-288-2672,36.298072,127.327358,2019-01-04
"대전광역시 서구청",대전광역시 서구 관저중로61(관저동),대전광역시 서구 관저2동 1152,생활방범,1,,360도 전방면,30,2009-05,042-288-2672,36.297089,127.334769,2019-01-04
"대전광역시 서구청",대전광역시 서구 괴정로85-35(괴정동),대전광역시 서구 괴정동 62-19,생활방범,1,,360도 전방면,30,2009-05,042-288-2672,36.3403546227,127.384022835,2019-01-04
"대전광역시 서구청",대전광역시 서구 도솔로252번길 49(내동),대전광역시 서구 내동 17-13,생활방범,1,,360도 전방면,30,2009-05,042-288-2672,36.3311255,127.380031,2019-01-04
"대전광역시 서구청",대전광역시 서구 대신1길 72(도마동),대전광역시 서구 도마1동 183-41,생활방범,1,,360도 전방면,30,2009-05,042-288-2672,36.311853,127.381044,2019-01-04
"대전광역시 서구청",대전광역시 서구 도마로7번길 29(도마동),대전광역시 서구 도마1동 24-34,생활방범,1,,360도 전방면,30,2009-05,042-288-2672,36.323742,127.371117,2019-01-04
"대전광역시 서구청",대전광역시 서구 도마15길 18(도마동),대전광역시 서구 도마1동 78-41,생활방범,1,,360도 전방면,30,2009-05,042-288-2672,36.319956,127.3804706,2019-01-04
"대전광역시 서구청",대전광역시 서구 제비네6길 69(도마동),대전광역시 서구 도마2동 149-1,생활방범,1,,360도 전방면,30,2009-05,042-288-2672,36.3148642,127.376372,2019-01-04
"대전광역시 서구청",대전광역시 서구 도림1길 15(도마동),대전광역시 서구 도마2동 163-11,생활방범,1,,360도 전방면,30,2009-05,042-288-2672,36.311189,127.373792,2019-01-04
"대전광역시 서구청",대전광역시 서구 문정로221(둔산동),대전광역시 서구 둔산1동 1385,생활방범,1,,360도 전방면,30,2009-05,042-288-2672,36.354628,127.3942853,2019-01-04
"대전광역시 서구청",대전광역시 서구 둔산남로9번길 87(둔산동),대전광역시 서구 둔산2동 1185,생활방범,1,,360도 전방면,30,2009-05,042-288-2672,36.350489,127.380814,2019-01-04
"대전광역시 서구청",대전광역시 서구 유등로 879(둔산동),대전광역시 서구 둔산2동 907-1,생활방범,1,,360도 전방면,30,2009-05,042-288-2672,36.362428,127.392997,2019-01-04
"대전광역시 서구청",대전광역시 서구 청사로 269(둔산동),대전광역시 서구 둔산2동 908-3,생활방범,1,,360도 전방면,30,2009-05,042-288-2672,36.359753,127.393614,2019-01-04
"대전광역시 서구청",대전광역시 서구 둔산북로232-52(둔산동),대전광역시 서구 둔산3동 1808,생활방범,1,,360도 전방면,30,2009-05,042-288-2672,36.353372,127.400325,2019-01-04
"대전광역시 서구청",대전광역시 서구 둔산로206번길 26(둔산동),대전광역시 서구 둔산3동 1905,생활방범,1,,360도 전방면,30,2009-05,042-288-2672,36.350122,127.396622,2019-01-04
"대전광역시 서구청",대전광역시 서구 만년남로14(만년동),대전광역시 서구 만년동 280,생활방범,1,,360도 전방면,30,2009-05,042-288-2672,36.3671313,127.3772881,2019-01-04
"대전광역시 서구청",대전광역시 서구 동서대로968(변동),대전광역시 서구 변동 254-439,생활방범,1,,360도 전방면,30,2009-05,042-288-2672,36.3331629,127.3694495,2019-01-04
"대전광역시 서구청",대전광역시 서구 복수북로69(복수동),대전광역시 서구 복수동 283-414,생활방범,1,,360도 전방면,30,2009-05,042-288-2672,36.3082432,127.3774794,2019-01-04
"대전광역시 서구청",대전광역시 서구 월평서로13(월평동),대전광역시 서구 월평1동 1182,생활방범,1,,360도 전방면,30,2009-05,042-288-2672,36.354808,127.357731,2019-01-04
"대전광역시 서구청",대전광역시 서구 월평새뜸로4번길 49-26(월평동),대전광역시 서구 월평1동 1308,생활방범,1,,360도 전방면,30,2009-05,042-288-2672,36.353772,127.355339,2019-01-04
"대전광역시 서구청",대전광역시 서구 월평동로21(?평동),대전광역시 서구 월평1동 663,생활방범,1,,360도 전방면,30,2009-05,042-288-2672,36.356153,127.368364,2019-01-04
"대전광역시 서구청",대전광역시 서구 정림로 32(정림동),대전광역시 서구 정림동 650,생활방범,1,,360도 전방면,30,2009-05,042-288-2672,36.3036480,127.366197,2019-01-04
"대전광역시 서구청",대전광역시 서구 남선로9번길 67(탄방동),대전광역시 서구 탄방동 1054,생활방범,1,,360도 전방면,30,2009-05,042-288-2672,36.3457930,127.3957954,2019-01-04
"대전광역시 서구청",대전광역시 서구 탄방로15(탄방동),대전광역시 서구 탄방동 814,생활방범,1,,360도 전방면,30,2009-05,042-288-2672,36.3459363,127.3910094,2019-01-04
"대전광역시 서구청",대전광역시 서구 동서대로1063번길 4(내동),대전광역시 서구 내동 13-1,생활방범,2,,360도 전방면,30,2009-09,042-288-2672,36.3299619,127.3794775,2019-01-04
"대전광역시 서구청",대전광역시 서구 동서대로1049(내동),대전광역시 서구 내동 13-20,생활방범,2,,360도 전방면,30,2009-09,042-288-2672,36.3307788,127.3779863,2019-01-04
"대전광역시 서구청",대전광역시 서구 도솔로252번길15(내동),대전광역시 서구 내동 18-28,생활방범,1,,360도 전방면,30,2009-09,042-288-2672,36.3319709,127.3786273,2019-01-04
"대전광역시 서구청",대전광역시 서구 갈마역로125(월평동),대전광역시 서구 월평3동 304 성룡초,생활방범,2,,360도 전방면,30,2009-09,042-288-2672,36.362153,127.374286,2019-01-04
"대전광역시 서구청",대전광역시 서구 갈마역로125(월평동),대전광역시 서구 월평3동 304 황실@103동,생활방범,2,,360도 전방면,30,2009-09,042-288-2672,36.362167,127.3735855,2019-01-04
"대전광역시 서구청",대전광역시 서구 갈마역로125(월평동),대전광역시 서구 월평3동 304 황실@110동,생활방범,2,,360도 전방면,30,2009-09,042-288-2672,36.361086,127.372983,2019-01-04
"대전광역시 서구청",대전광역시 서구 갈마역로125(월평동),대전광역시 서구 월평3동 304 황실@118동,생활방범,2,,360도 전방면,30,2009-09,042-288-2672,36.360978,127.374281,2019-01-04
"대전광역시 서구청",대전광역시 서구 계백로1286번길117(정림동),대전광역시 서구 정림동 197-23,생활방범,2,,360도 전방면,30,2009-09,042-288-2672,36.3028654,127.3675234,2019-01-04
"대전광역시 서구청",대전광역시 서구 정림동로8-6(정림동),대전광역시 서구 정림동 635 정림초교 공원쪽,생활방범,2,,360도 전방면,30,2009-09,042-288-2672,36.303794,127.365878,2019-01-04
"대전광역시 서구청",대전광역시 서구 계백로1286번길86(정림동),대전광역시 서구 정림동 637 정림초교 주민센터,생활방범,2,,360도 전방면,30,2009-09,042-288-2672,36.303978,127.367042,2019-01-04
"대전광역시 서구청",,대전광역시 서구 평촌동 산 12-17,생활방범,2,,360도 전방면,30,2009-05,042-288-2672,36.238622,127.317439,2019-01-04
"대전광역시 서구청",,대전광역시 서구 둔산3동 2154,생활방범,3,,360도 전방면,30,2009-05,042-288-2672,36.238622,127.317439,2019-01-04
"대전광역시 서구청",대전광역시 서구 가수원중로 43-11(가수원동),대전광역시 서구 가수원동 788-4,생활방범,1,,360도 전방면,30,2010-07,042-288-2672,36.3007522,127.3530783,2019-01-04
"대전광역시 서구청",대전광역시 서구 괴정로198번길 46(가장동),대전광역시 서구 가장동 23-1,생활방범,1,,360도 전방면,30,2010-07,042-288-2672,36.3310955,127.3895956,2019-01-04
"대전광역시 서구청",대전광역시 서구 계룡로407번길 73(갈마동),대전광역시 서구 갈마1동 268-1,생활방범,1,,360도 전방면,30,2010-07,042-288-2672,36.353081,127.370219,2019-01-04
"대전광역시 서구청",대전광역시 서구 한밭대로656번길 28(갈마동),대전광역시 서구 갈마1동 780 2번출구,생활방범,1,,360도 전방면,30,2010-07,042-288-2672,36.356464,127.371647,2019-01-04
"대전광역시 서구청",대전광역시 서구 갈마역로25번길 47(갈마동),대전광역시 서구 갈마1동 886,생활방범,1,,360도 전방면,30,2010-07,042-288-2672,36.352794,127.371642,2019-01-04
"대전광역시 서구청",대전광역시 서구 갈마중로46번길 15(갈마동),대전광역시 서구 갈마2동 1082,생활방범,1,,360도 전방면,30,2010-07,042-288-2672,36.346494,127.373986,2019-01-04
"대전광역시 서구청",대전광역시 서구 갈마중로8번길 64(갈마동),대전광역시 서구 갈마2동 405-5,생활방범,1,,360도 전방면,30,2010-07,042-288-2672,36.344864,127.370972,2019-01-04
"대전광역시 서구청",대전광역시 서구 대덕대로167번길 53(갈마동),대전광역시 서구 갈마2동 910,생활방범,1,,360도 전방면,30,2010-07,042-288-2672,36.349861,127.373644,2019-01-04
"대전광역시 서구청",대전광역시 서구 괴정로116번길 12(괴정동),대전광역시 서구 괴정동 80-12,생활방범,1,,360도 전방면,30,2010-07,042-288-2672,36.3371451,127.384972,2019-01-04
"대전광역시 서구청",대전광역시 서구 도솔로322번길 21-10(괴정동),대전광역시 서구 괴정동 83-61,생활방범,1,,360도 전방면,30,2010-07,042-288-2672,36.335517,127.384744,2019-01-04
"대전광역시 서구청",대전광역시 서구 동서대로1021번길 36(내동),대전광역시 서구 내동 20-60,생활방범,1,,360도 전방면,30,2010-07,042-288-2672,36.3332876,127.3767143,2019-01-04
"대전광역시 서구청",대전광역시 서구 도마2길 43(도마동)),대전광역시 서구 도마1동 134-39,생활방범,1,,360도 전방면,30,2010-07,042-288-2672,36.314542,127.381411,2019-01-04
"대전광역시 서구청",대전광역시 서구 도학1길 13(도마동),대전광역시 서구 도마1동 48-1,생활방범,1,,360도 전방면,30,2010-07,042-288-2672,36.321823,127.372578,2019-01-04
"대전광역시 서구청",대전광역시 서구 사마3길 12 (도마동),대전광역시 서구 도마2동 127-28,생활방범,1,,360도 전방면,30,2010-07,042-288-2672,36.316544,127.377697,2019-01-04
"대전광역시 서구청",대전광역시 서구 제비네8길 35(도마동),대전광역시 서구 도마2동 165-1,생활방범,1,,360도 전방면,30,2010-07,042-288-2672,36.312739,127.375392,2019-01-04
"대전광역시 서구청",대전광역시 서구 문정로170번길 137(둔산동),대전광역시 서구 둔산3동 2064,생활방범,1,,360도 전방면,30,2010-07,042-288-2672,36.350689,127.400511,2019-01-04
"대전광역시 서구청",,대전광역시 서구 둔산3동 2167,생활방범,1,,360도 전방면,30,2010-07,042-288-2672,36.349411,127.401297,2019-01-04
"대전광역시 서구청",대전광역시 서구 배재로233번길 31(변동),대전광역시 서구 변동 253-53,생활방범,1,,360도 전방면,30,2010-07,042-288-2672,36.3296446,127.368994,2019-01-04
"대전광역시 서구청",대전광역시 서구 오량1길 63(복수동),대전광역시 서구 복수동 283-148,생활방범,1,,360도 전방면,30,2010-07,042-288-2672,36.3108662,127.3777191,2019-01-04
"대전광역시 서구청",대전광역시 서구 오량1길 40(복수동),대전광역시 서구 복수동 283-38,생활방범,1,,360도 전방면,30,2010-07,042-288-2672,36.3102820,127.375769,2019-01-04
"대전광역시 서구청",대전광역시 서구 도솔로511번길29-1(용문동),대전광역시 서구 용문동 218-20,생활방범,1,,360도 전방면,30,2010-07,042-288-2672,36.3415485,127.399756,2019-01-04
"대전광역시 서구청",대전광역시 서구 탄방로 108(용문동),대전광역시 서구 용문동 241-4,생활방범,2,,360도 전방면,30,2010-07,042-288-2672,36.339094,127.3963886,2019-01-04
"대전광역시 서구청",대전광역시 서구 계룡로264번길 34(월평동),대전광역시 서구 월평1동 16-3,생활방범,1,,360도 전방면,30,2010-07,042-288-2672,36.353275,127.360553,2019-01-04
"대전광역시 서구청",대전광역시 서구 월평로27번길 1(월평동),대전광역시 서구 월평1동 405,생활방범,1,,360도 전방면,30,2010-07,042-288-2672,36.356653,127.359931,2019-01-04
"대전광역시 서구청",대전광역시 서구 남선로37(탄방동),대전광역시 서구 탄방동 1133,생활방범,1,,360도 전방면,30,2010-07,042-288-2672,36.3466301,127.3970255,2019-01-04
"대전광역시 서구청",대전광역시 서구 도솔로483번길 74(탄방동),대전광역시 서구 탄방동 1483-1,생활방범,1,,360도 전방면,30,2010-07,042-288-2672,36.3444654,127.3997215,2019-01-04
"대전광역시 서구청",대전광역시 서구 큰마을4길 10(탄방동),대전광역시 서구 탄방동 511-56,생활방범,1,,360도 전방면,30,2010-07,042-288-2672,36.342575,127.3792383,2019-01-04
"대전광역시 서구청",대전광역시 서구 벌곡로 1359(가수원동),대전광역시 서구 가수원동 471,생활방범,1,,360도 전방면,30,2010-12,042-288-2672,36.3027731,127.3528022,2019-01-04
"대전광역시 서구청",대전광역시 서구 가수원중로57번길 73(가수원동),대전광역시 서구 가수원동 815-6,생활방범,1,,360도 전방면,30,2010-12,042-288-2672,36.297006,127.354286,2019-01-04
"대전광역시 서구청",대전광역시 서구 괴정로198번길 56(가장동),대전광역시 서구 가장동 27-1,생활방범,1,,360도 전방면,30,2010-12,042-288-2672,36.330069,127.389117,2019-01-04
"대전광역시 서구청",대전광역시 서구 유등로431번길 47(가장동),대전광역시 서구 가장동 29-2,생활방범,2,,360도 전방면,30,2010-12,042-288-2672,36.3303949,127.3875984,2019-01-04
"대전광역시 서구청",대전광역시 서구 들말4길 24(가장동),대전광역시 서구 가장동 40-6,생활방범,1,,360도 전방면,30,2010-12,042-288-2672,36.3294505,127.3842821,2019-01-04
"대전광역시 서구청",대전광역시 서구 계룡로342번길 28(갈마동),대전광역시 서구 갈마1동 295-17,생활방범,1,,360도 전방면,30,2010-12,042-288-2672,36.352267,127.366278,2019-01-04
"대전광역시 서구청",대전광역시 서구 신갈마로 160-2(갈마동),대전광역시 서구 갈마1동 363-1,생활방범,1,,360도 전방면,30,2010-12,042-288-2672,36.348419,127.368458,2019-01-04
"대전광역시 서구청",대전광역시 서구 신갈마로127번길 28(갈마동),대전광역시 서구 갈마1동 389,생활방범,1,,360도 전방면,30,2010-12,042-288-2672,36.346131,127.365717,2019-01-04
"대전광역시 서구청",대전광역시 서구 신갈마로 121-6(갈마동),대전광역시 서구 갈마1동 392-6,생활방범,1,,360도 전방면,30,2010-12,042-288-2672,36.343936,127.368397,2019-01-04
"대전광역시 서구청",대전광역시 서구 계룡로367번길 86(갈마동),대전광역시 서구 갈마1동 787,생활방범,1,,360도 전방면,30,2010-12,042-288-2672,36.356247,127.370997,2019-01-04
"대전광역시 서구청",대전광역시 서구 계룡로367번길 92(갈마동),대전광역시 서구 갈마1동 789,생활방범,1,,360도 전방면,30,2010-12,042-288-2672,36.355389,127.369336,2019-01-04
"대전광역시 서구청",,대전광역시 서구 갈마2동 1318,생활방범,1,,360도 전방면,30,2010-12,042-288-2672,36.341597,127.375356,2019-01-04
"대전광역시 서구청",대전광역시 서구 갈마로103번길 41(갈마동),대전광역시 서구 갈마2동 402-1,생활방범,1,,360도 전방면,30,2010-12,042-288-2672,36.344731,127.371658,2019-01-04
"대전광역시 서구청",대전광역시 서구 관저로129번길 26(관저동),대전광역시 서구 관저2동 1063,생활방범,1,,360도 전방면,30,2010-12,042-288-2672,36.299936,127.336619,2019-01-04
"대전광역시 서구청",대전광역시 서구 관저중로 61(관저동),대전광역시 서구 관저2동 1152,생활방범,1,,360도 전방면,30,2010-12,042-288-2672,36.297792,127.333464,2019-01-04
"대전광역시 서구청",대전광역시 서구 관저동로93번길 55(관저동),대전광역시 서구 관저2동 1247,생활방범,1,,360도 전방면,30,2010-12,042-288-2672,36.3004783,127.337153,2019-01-04
"대전광역시 서구청",,대전광역시 서구 관저2동 1365,생활방범,1,,360도 전방면,30,2010-12,042-288-2672,36.298058,127.339136,2019-01-04
"대전광역시 서구청",대전광역시 서구 관저동로42(관저동),대전광역시 서구 관저2동 1393,생활방범,1,,360도 전방면,30,2010-12,042-288-2672,36.295525,127.3426207,2019-01-04
"대전광역시 서구청",대전광역시 서구 관저로 196(관저동),대전광역시 서구 관저2동 1396,생활방범,1,,360도 전방면,30,2010-12,042-288-2672,36.2984470,127.343586,2019-01-04
"대전광역시 서구청",대전광역시 서구 관저동로90번길 16(관저동),대전광역시 서구 관저2동 1419,생활방범,1,,360도 전방면,30,2010-12,042-288-2672,36.299936,127.342111,2019-01-04
"대전광역시 서구청",대전광역시 서구 괴정로 16번길 5(괴정동),대전광역시 서구 괴정동 123-6,생활방범,1,,360도 전방면,30,2010-12,042-288-2672,36.3397036,127.376822,2019-01-04
"대전광역시 서구청",,대전광역시 서구 괴정동 138-5,생활방범,2,,360도 전방면,30,2010-12,042-288-2672,36.336211,127.376294,2019-01-04
"대전광역시 서구청",대전광역시 서구 당고개길 48(평촌동),대전광역시 서구 기성동 297,생활방범,1,,360도 전방면,30,2010-12,042-288-2672,36.241239,127.315694,2019-01-04
"대전광역시 서구청",대전광역시 서구 기성초교길 42(매노동),대전광역시 서구 기성동 163,생활방범,1,,360도 전방면,30,2010-12,042-288-2672,36.249661,127.338086,2019-01-04
"대전광역시 서구청",대전광역시 서구 대덕대로21번길 5-8(내동),대전광역시 서구 내동 161-7,생활방범,1,,360도 전방면,30,2010-12,042-288-2672,36.335208,127.371514,2019-01-04
"대전광역시 서구청",대전광역시 서구 도솔로267번길 32(내동),대전광역시 서구 내동 33-7,생활방범,1,,360도 전방면,30,2010-12,042-288-2672,36.3343770,127.3778953,2019-01-04
"대전광역시 서구청",대전광역시 서구 도마4길 71 (도마동),대전광역시 서구 도마1동 132-4,생활방범,1,,360도 전방면,30,2010-12,042-288-2672,36.315828,127.380817,2019-01-04
"대전광역시 서구청",대전광역시 서구 대신1길 86(도마동),대전광역시 서구 도마1동 182-8,생활방범,1,,360도 전방면,30,2010-12,042-288-2672,36.310417,127.382122,2019-01-04
"대전광역시 서구청",대전광역시 서구 배재로186번길 25(도마동),대전광역시 서구 도마1동 21-39,생활방범,1,,360도 전방면,30,2010-12,042-288-2672,36.324986,127.371803,2019-01-04
"대전광역시 서구청",대전광역시 서구 도마로19번길 30(도마동),대전광역시 서구 도마2동 31-11,생활방범,1,,360도 전방면,30,2010-12,042-288-2672,36.323714,127.372286,2019-01-04
"대전광역시 서구청",대전광역시 서구 도마로37번길 55(도마동),대전광역시 서구 도마1동 37-28,생활방범,2,,360도 전방면,30,2010-12,042-288-2672,36.324922,127.374617,2019-01-04
"대전광역시 서구청",대전광역시 서구 용화7길 68(도마동),대전광역시 서구 도마1동 45-1,생활방범,1,,360도 전방면,30,2010-12,042-288-2672,36.321764,127.374442,2019-01-04
"대전광역시 서구청",대전광역시 서구 제비네8길 83(도마동),대전광역시 서구 도마2동 152-4,생활방범,1,,360도 전방면,30,2010-12,042-288-2672,36.314372,127.375156,2019-01-04
"대전광역시 서구청",대전광역시 서구 배재로46번길 90(도마동),대전광역시 서구 도마2동 155-4,생활방범,1,,360도 전방면,30,2010-12,042-288-2672,36.312964,127.374017,2019-01-04
"대전광역시 서구청",대전광역시 서구 제비네4길 35(도마동),대전광역시 서구 도마2동 171-1,생활방범,2,,360도 전방면,30,2010-12,042-288-2672,36.313431,127.377878,2019-01-04
"대전광역시 서구청",대전광역시 서구 문정로 221(둔산동),대전광역시 서구 둔산1동 1386,생활방범,1,,360도 전방면,30,2010-12,042-288-2672,36.354636,127.395061,2019-01-04
"대전광역시 서구청",대전광역시 서구 문정로 221(둔산동),대전광역시 서구 둔산1동 1813,생활방범,1,,360도 전방면,30,2010-12,042-288-2672,36.353567,127.393856,2019-01-04
"대전광역시 서구청",대전광역시 서구 둔산남로9번길 53(둔산동),대전광역시 서구 둔산2동 1193,생활방범,1,,360도 전방면,30,2010-12,042-288-2672,36.350714,127.379106,2019-01-04
"대전광역시 서구청",대전광역시 서구 둔산로74번길 20(둔산동),대전광역시 서구 둔산2동 1205,생활방범,1,,360도 전방면,30,2010-12,042-288-2672,36.349558,127.381964,2019-01-04
"대전광역시 서구청",대전광역시 서구 둔산로74번길 20(둔산동),대전광역시 서구 둔산2동 1205,생활방범,1,,360도 전방면,30,2010-12,042-288-2672,36.349061,127.380864,2019-01-04
"대전광역시 서구청",대전광역시 서구 계룡로491번길 28(둔산동),대전광역시 서구 둔산2동 1234,생활방범,1,,360도 전방면,30,2010-12,042-288-2672,36.346361,127.381283,2019-01-04
"대전광역시 서구청",대전광역시 서구 문정로 180(둔산동),대전광역시 서구 둔산3동 1813,생활방범,1,,360도 전방면,30,2010-12,042-288-2672,36.350647,127.395414,2019-01-04
"대전광역시 서구청",대전광역시 서구 문정로 180(둔산동),대전광역시 서구 둔산3동 1813,생활방범,1,,360도 전방면,30,2010-12,042-288-2672,36.351164,127.396567,2019-01-04
"대전광역시 서구청",대전광역시 서구 문정로 170번길 59(둔산동),대전광역시 서구 둔산3동 2008,생활방범,1,,360도 전방면,30,2010-12,042-288-2672,36.350047,127.399272,2019-01-04
"대전광역시 서구청",대전광역시 서구 만년남로11번길 50(만년동),대전광역시 서구 만년동 157,생활방범,1,,360도 전방면,30,2010-12,042-288-2672,36.366514,127.374331,2019-01-04
"대전광역시 서구청",대전광역시 서구 만년로 13(만년동),대전광역시 서구 만년동 6,생활방범,1,,360도 전방면,30,2010-12,042-288-2672,36.3675278,127.3743452,2019-01-04
"대전광역시 서구청",대전광역시 서구 만년로 13(만년동),대전광역시 서구 만년동 7,생활방범,1,,360도 전방면,30,2010-12,042-288-2672,36.367689,127.374936,2019-01-04
"대전광역시 서구청",대전광역시 서구 변동서로6번길 106(변동),대전광역시 서구 변동 254-159,생활방범,1,,360도 전방면,30,2010-12,042-288-2672,36.332708,127.368864,2019-01-04
"대전광역시 서구청",대전광역시 서구 배재로227번길 58(변동),대전광역시 서구 변동 254-364,생활방범,1,,360도 전방면,30,2010-12,042-288-2672,36.330372,127.368114,2019-01-04
"대전광역시 서구청",대전광역시 서구 중반5길 102(변동),대전광역시 서구 변동 38-34,생활방범,1,,360도 전방면,30,2010-12,042-288-2672,36.325017,127.386544,2019-01-04
"대전광역시 서구청",대전광역시 서구 중반2길 118(변동),대전광역시 서구 변동 40-4,생활방범,1,,360도 전방면,30,2010-12,042-288-2672,36.3241300,127.385019,2019-01-04
"대전광역시 서구청",대전광역시 서구 오량1길 60(복수동),대전광역시 서구 복수동 283-447,생활방범,1,,360도 전방면,30,2010-12,042-288-2672,36.310525,127.376939,2019-01-04
"대전광역시 서구청",대전광역시 서구 오량2길 3(복수동),대전광역시 서구 복수동 287-4,생활방범,1,,360도 전방면,30,2010-12,042-288-2672,36.309378,127.374003,2019-01-04
"대전광역시 서구청",대전광역시 서구 복수남로32번길 15(복수동),대전광역시 서구 복수동 503,생활방범,1,,좌우양방향,30,2010-12,042-288-2672,36.298858,127.377594,2019-01-04
"대전광역시 서구청",대전광역시 서구 복수동로 65(복수동),대전광역시 서구 복수동 646,생활방범,1,,360도 전방면,30,2010-12,042-288-2672,36.2983569,127.379444,2019-01-04
"대전광역시 서구청",대전광역시 서구 월평로34번길 26-12(월평동),대전광역시 서구 월평1동 1046,생활방범,1,,360도 전방면,30,2010-12,042-288-2672,36.354872,127.360717,2019-01-04
"대전광역시 서구청",대전광역시 서구 월평중로24번길 39(월평동),대전광역시 서구 월평1동 599,생활방범,1,,360도 전방면,30,2010-12,042-288-2672,36.356822,127.366044,2019-01-04
"대전광역시 서구청",대전광역시 서구 월평로87번길 29(월평동),대전광역시 서구 월평1동 653,생활방범,1,,360도 전방면,30,2010-12,042-288-2672,36.357589,127.367044,2019-01-04
"대전광역시 서구청",대전광역시 서구 정림동로 25(정림동),대전광역시 서구 정림동 127-5,생활방범,1,,360도 전방면,30,2010-12,042-288-2672,36.3050136,127.3684681,2019-01-04
"대전광역시 서구청",대전광역시 서구 정림서로138번길 26(정림동),대전광역시 서구 정림동 290-23,생활방범,1,,360도 전방면,30,2010-12,042-288-2672,36.298903,127.364911,2019-01-04
"대전광역시 서구청",,대전광역시 서구 정림동 473-1 백목련@102 천변쪽,생활방범,1,,360도 전방면,30,2010-12,042-288-2672,36.238622,127.317439,2019-01-04
"대전광역시 서구청",,대전광역시 서구 정림동 563 강변어린이공원,생활방범,1,,360도 전방면,30,2010-12,042-288-2672,36.306328,127.364389,2019-01-04
"대전광역시 서구청",대전광역시 서구 탄방로 65(탄방동),대전광역시 서구 탄방동 67-1,생활방범,1,,360도 전방면,30,2010-12,042-288-2672,36.343003,127.393253,2019-01-04
"대전광역시 서구청",대전광역시 서구 탄방로 26(탄방동),대전광역시 서구 탄방동 780,생활방범,1,,360도 전방면,30,2010-12,042-288-2672,36.344158,127.390397,2019-01-04
"대전광역시 서구청",대전광역시 서구 탄방로 15(탄방동),대전광역시 서구 탄방동 814,생활방범,1,,360도 전방면,30,2010-12,042-288-2672,36.3459363,127.3910094,2019-01-04
"대전광역시 서구청",대전광역시 서구 가수원중로 6(가수원동),대전광역시 서구 가수원동 807-1,생활방범,1,,360도 전방면,30,2011-08,042-288-2672,36.2989990,127.3541895,2019-01-04
"대전광역시 서구청",대전광역시 서구 계룡로 383-17(갈마동),대전광역시 서구 갈마1동 271-11,생활방범,1,,360도 전방면,30,2011-08,042-288-2672,36.351811,127.371711,2019-01-04
"대전광역시 서구청",대전광역시 서구 신갈마로195번길 13(갈마동),대전광역시 서구 갈마1동 316-1,생활방범,1,,360도 전방면,30,2011-08,042-288-2672,36.351044,127.367247,2019-01-04
"대전광역시 서구청",대전광역시 서구 월평동로26번길 31(갈마동),대전광역시 서구 갈마1동 716,생활방범,1,,360도 전방면,30,2011-08,042-288-2672,36.357319,127.370344,2019-01-04
"대전광역시 서구청",대전광역시 서구 대덕대로162번길 856(갈마동),대전광역시 서구 갈마2동 1421,생활방범,1,,360도 전방면,30,2011-08,042-288-2672,36.344339,127.378675,2019-01-04
"대전광역시 서구청",대전광역시 서구 계룡로406번길 29(갈마동),대전광역시 서구 갈마2동 344-26,생활방범,1,,360도 전방면,30,2011-08,042-288-2672,36.349194,127.372472,2019-01-04
"대전광역시 서구청",대전광역시 서구 갈마중로 6-31(갈마동),대전광역시 서구 갈마2동 394-2,생활방범,1,,360도 전방면,30,2011-08,042-288-2672,36.346194,127.369994,2019-01-04
"대전광역시 서구청",대전광역시 서구 관저북로 26(관저동),대전광역시 서구 관저1동 999-1,생활방범,1,,360도 전방면,30,2011-08,042-288-2672,36.304442,127.337258,2019-01-04
"대전광역시 서구청",대전광역시 서구 관저동로105번길 20(관저동),대전광역시 서구 관저2동 1199,생활방범,1,,360도 전방면,30,2011-08,042-288-2672,36.301525,127.339192,2019-01-04
"대전광역시 서구청",대전광역시 서구 갈마로219번길 12-20(괴정동),대전광역시 서구 괴정동 93-26,생활방범,1,,360도 전방면,30,2011-08,042-288-2672,36.3354697,127.3803907,2019-01-04
"대전광역시 서구청",대전광역시 서구 금평3길 17(흑석동),대전광역시 서구 흑석동 975,생활방범,2,,360도 전방면,30,2011-08,042-288-2672,36.2541781,127.3414915,2019-01-04
"대전광역시 서구청",대전광역시 서구 대덕대로21번길 18(내동),대전광역시 서구 내동 158-14,생활방범,1,,360도 전방면,30,2011-08,042-288-2672,36.3360670,127.3715459,2019-01-04
"대전광역시 서구청",대전광역시 서구 도마로13번길 16(도마동),대전광역시 서구 도마1동 29-17,생활방범,1,,360도 전방면,30,2011-08,042-288-2672,36.323206,127.371667,2019-01-04
"대전광역시 서구청",대전광역시 서구 제비네2길 19(도마동),대전광역시 서구 도마2동 128-104,생활방범,1,,360도 전방면,30,2011-08,042-288-2672,36.315467,127.378339,2019-01-04
"대전광역시 서구청",대전광역시 서구 둔산로31번길 21(둔산동),대전광역시 서구 둔산2동 988,생활방범,1,,360도 전방면,30,2011-08,042-288-2672,36.352475,127.3772652,2019-01-04
"대전광역시 서구청",대전광역시 서구 문정로170번길 196(둔산동),대전광역시 서구 둔산3동 1830,생활방범,1,,360도 전방면,30,2011-08,042-288-2672,36.350742,127.397433,2019-01-04
"대전광역시 서구청",대전광역시 서구 만년남로3번길 75(만년동),대전광역시 서구 만년동 89,생활방범,1,,360도 전방면,30,2011-08,042-288-2672,36.3652905,127.372303,2019-01-04
"대전광역시 서구청",대전광역시 서구 중반6길 33(변동),대전광역시 서구 변동 32-37,생활방범,1,,360도 전방면,30,2011-08,042-288-2672,36.326061,127.3823800,2019-01-04
"대전광역시 서구청",대전광역시 서구 변동중로45번길 27(변동),대전광역시 서구 변동 7,생활방범,1,,360도 전방면,30,2011-08,042-288-2672,36.329142,127.373269,2019-01-04
"대전광역시 서구청",대전광역시 서구 복수중로 30(복수동),대전광역시 서구 복수동 270-1,생활방범,1,,360도 전방면,30,2011-08,042-288-2672,36.3067297,127.3769090,2019-01-04
"대전광역시 서구청",대전광역시 서구 괴정로189번길 29(용문동),대전광역시 서구 용문동 280-76,생활방범,1,,360도 전방면,30,2011-08,042-288-2672,36.3337988,127.3923447,2019-01-04
"대전광역시 서구청",대전광역시 서구 월평새뜸로8번길 50(월평동),대전광역시 서구 월평1동 1301,생활방범,1,,360도 전방면,30,2011-08,042-288-2672,36.353472,127.356194,2019-01-04
"대전광역시 서구청",대전광역시 서구 월평로 46(월평동),대전광역시 서구 월평1동 915,생활방범,1,,360도 전방면,30,2011-08,042-288-2672,36.356111,127.362042,2019-01-04
"대전광역시 서구청",대전광역시 서구 계백로1286번길 11(정림동),대전광역시 서구 정림동 13-16,생활방범,2,,360도 전방면,30,2011-08,042-288-2672,36.3074644,127.365936,2019-01-04
"대전광역시 서구청",대전광역시 서구 도솔로483번길 22(탄방동),대전광역시 서구 탄방동 1407,생활방범,1,,360도 전방면,30,2011-08,042-288-2672,36.3425617,127.3982388,2019-01-04
"대전광역시 서구청",대전광역시 서구 문정로90번길 15(탄방동),대전광역시 서구 탄방동 789,생활방범,1,,360도 전방면,30,2011-08,042-288-2672,36.3459513,127.3895365,2019-01-04
"대전광역시 서구청",대전광역시 서구 벌곡로1379번길 33(가수원동),대전광역시 서구 가수원동 769-1,생활방범,1,,360도 전방면,30,2011-09,042-288-2672,36.3037550,127.3518844,2019-01-04
"대전광역시 서구청",대전광역시 서구 가수원로 72(가수원동),대전광역시 서구 가수원동 769-2,생활방범,1,,좌우양방향,30,2011-09,042-288-2672,36.3017893,127.351542,2019-01-04
"대전광역시 서구청",대전광역시 서구 가수원중로65번길 22(가수원동),대전광역시 서구 가수원동 802-1,생활방범,1,,360도 전방면,30,2011-09,042-288-2672,36.2980750,127.3521552,2019-01-04
"대전광역시 서구청",대전광역시 서구 계룡로 338(갈마동),대전광역시 서구 갈마1동 291-14,생활방범,1,,360도 전방면,30,2011-09,042-288-2672,36.353299,127.366743,2019-01-04
"대전광역시 서구청",대전광역시 서구 신갈마로195번길 51(갈마동),대전광역시 서구 갈마1동 321-1,생활방범,1,,360도 전방면,30,2011-09,042-288-2672,36.351066,127.365431,2019-01-04
"대전광역시 서구청",대전광역시 서구 신갈마로127번길 47(갈마동),대전광역시 서구 갈마1동 390-1,생활방범,1,,360도 전방면,30,2011-09,042-288-2672,36.344856,127.365831,2019-01-04
"대전광역시 서구청",대전광역시 서구 대덕대로112번길 10(갈마동),대전광역시 서구 갈마2동 1417,생활방범,1,,360도 전방면,30,2011-09,042-288-2672,36.343484,127.374924,2019-01-04
"대전광역시 서구청",대전광역시 서구 대덕대로112번길 10(갈마동),대전광역시 서구 갈마2동 1417,생활방범,1,,360도 전방면,30,2011-09,042-288-2672,36.342344,127.374569,2019-01-04
"대전광역시 서구청",대전광역시 서구 계룡로394번길 10(갈마동),대전광역시 서구 갈마2동 309-10,생활방범,1,,360도 전방면,30,2011-09,042-288-2672,36.350578,127.371192,2019-01-04
"대전광역시 서구청",대전광역시 서구 도안대로 98(관저동),대전광역시 서구 관저1동 49-20,생활방범,1,,360도 전방면,30,2011-09,042-288-2672,36.310519,127.336925,2019-01-04
"대전광역시 서구청",대전광역시 서구 관저로 83(관저동),대전광역시 서구 관저2동 1129,생활방범,1,,360도 전방면,30,2011-09,042-288-2672,36.301492,127.330922,2019-01-04
"대전광역시 서구청",대전광역시 서구 관저로 83(관저동),대전광역시 서구 관저2동 1130,생활방범,1,,360도 전방면,30,2011-09,042-288-2672,36.299575,127.332328,2019-01-04
"대전광역시 서구청",대전광역시 서구 관저로 65(관저동),대전광역시 서구 관저2동 1134,생활방범,1,,360도 전방면,30,2011-09,042-288-2672,36.299483,127.328739,2019-01-04
"대전광역시 서구청",대전광역시 서구 구봉로 11(관저동),대전광역시 서구 관저2동 1138,생활방범,1,,360도 전방면,30,2011-09,042-288-2672,36.299197,127.325278,2019-01-04
"대전광역시 서구청",대전광역시 서구 관저중로 65(관저동),대전광역시 서구 관저2동 1151,생활방범,1,,360도 전방면,30,2011-09,042-288-2672,36.298167,127.334492,2019-01-04
"대전광역시 서구청",대전광역시 서구 관저서로 36(관저동),대전광역시 서구 관저2동 1156,생활방범,1,,360도 전방면,30,2011-09,042-288-2672,36.294778,127.331014,2019-01-04
"대전광역시 서구청",대전광역시 서구 관저동로 47-15(관저동),대전광역시 서구 관저2동 1397,생활방범,1,,360도 전방면,30,2011-09,042-288-2672,36.298872,127.343331,2019-01-04
"대전광역시 서구청",대전광역시 서구 갈마로183번길 41(괴정동),대전광역시 서구 괴정동 122-2,생활방범,1,,360도 전방면,30,2011-09,042-288-2672,36.3395643,127.3780256,2019-01-04
"대전광역시 서구청",대전광역시 서구 용문로 41-17(괴정동),대전광역시 서구 괴정동 425-1,생활방범,1,,360도 전방면,30,2011-09,042-288-2672,36.3397323,127.3887384,2019-01-04
"대전광역시 서구청",대전광역시 서구 계룡로576번길 56(괴정동),대전광역시 서구 괴정동 43-8,생활방범,1,,360도 전방면,30,2011-09,042-288-2672,36.3407605,127.3845061,2019-01-04
"대전광역시 서구청",대전광역시 서구 도산로335번길 62(괴정동),대전광역시 서구 괴정동 51-1,생활방범,1,,360도 전방면,30,2011-09,042-288-2672,36.3378159,127.3863851,2019-01-04
"대전광역시 서구청",대전광역시 서구 금평4길 11(흑석동),대전광역시 서구 흑석동 983,생활방범,1,,360도 전방면,30,2011-09,042-288-2672,36.2541001,127.3417426,2019-01-04
"대전광역시 서구청",대전광역시 서구 세점길 11(흑석동),대전광역시 서구 흑석동 842,생활방범,1,,360도 전방면,30,2011-09,042-288-2672,36.255059,127.340062,2019-01-04
"대전광역시 서구청",대전광역시 서구 동서대로1047번길 16(내동),대전광역시 서구 내동 16-1,생활방범,1,,360도 전방면,30,2011-09,042-288-2672,36.3312896,127.3784589,2019-01-04
"대전광역시 서구청",대전광역시 서구 도솔로245번길 40(내동),대전광역시 서구 내동 23-10,생활방범,1,,360도 전방면,30,2011-09,042-288-2672,36.333065,127.375322,2019-01-04
"대전광역시 서구청",대전광역시 서구 도산로253번길 15(내동),대전광역시 서구 내동 8-1,생활방범,1,,360도 전방면,30,2011-09,042-288-2672,36.3304408031,127.382062,2019-01-04
"대전광역시 서구청",대전광역시 서구 제비네8길 35(도마동),대전광역시 서구 도마2동 165-1,생활방범,1,,360도 전방면,30,2011-09,042-288-2672,36.312829,127.374975,2019-01-04
"대전광역시 서구청",대전광역시 서구 도학4길 39(도마동),대전광역시 서구 도마1동 207-3,생활방범,1,,360도 전방면,30,2011-09,042-288-2672,36.321367,127.371519,2019-01-04
"대전광역시 서구청",대전광역시 서구 도림1길 29(도마동),대전광역시 서구 도마2동 163-21,생활방범,1,,360도 전방면,30,2011-09,042-288-2672,36.312267,127.372386,2019-01-04
"대전광역시 서구청",대전광역시 서구 문정로 279(둔산동),대전광역시 서구 둔산2동 910,생활방범,1,,360도 전방면,30,2011-09,042-288-2672,36.359664,127.395175,2019-01-04
"대전광역시 서구청",대전광역시 서구 둔산북로 232-11(둔산동),대전광역시 서구 둔산3동 1808,생활방범,1,,360도 전방면,30,2011-09,042-288-2672,36.355681,127.400267,2019-01-04
"대전광역시 서구청",대전광역시 서구 만년남로3번길 101(만년동),대전광역시 서구 만년동 24,생활방범,1,,360도 전방면,30,2011-09,042-288-2672,36.3653829,127.370911,2019-01-04
"대전광역시 서구청",대전광역시 서구 만년남로 14(만년동),대전광역시 서구 만년동 246,생활방범,1,,360도 전방면,30,2011-09,042-288-2672,36.3671313,127.3772881,2019-01-04
"대전광역시 서구청",대전광역시 서구 만년로3(만년동),대전광역시 서구 만년동 8,생활방범,1,,360도 전방면,30,2011-09,042-288-2672,36.3684026,127.3739393,2019-01-04
"대전광역시 서구청",대전광역시 서구 변동서로28번길 133-35(변동),대전광역시 서구 변동 254-182,생활방범,1,,360도 전방면,30,2011-09,042-288-2672,36.3315919,127.368764,2019-01-04
"대전광역시 서구청",대전광역시 서구 중반4길 100(변동),대전광역시 서구 변동 37-29,생활방범,1,,360도 전방면,30,2011-09,042-288-2672,36.325575,127.3851556,2019-01-04
"대전광역시 서구청",대전광역시 서구 변정3길 18(변동),대전광역시 서구 변동 45-1,생활방범,1,,360도 전방면,30,2011-09,042-288-2672,36.3232816,127.3827235,2019-01-04
"대전광역시 서구청",대전광역시 서구 복수북로 61(복수동),대전광역시 서구 복수동 283-397,생활방범,1,,360도 전방면,30,2011-09,042-288-2672,36.3084941,127.3766868,2019-01-04
"대전광역시 서구청",대전광역시 서구 유등로17번길 143(복수동),대전광역시 서구 복수동 569,생활방범,1,,360도 전방면,30,2011-09,042-288-2672,36.299283,127.374878,2019-01-04
"대전광역시 서구청",대전광역시 서구 복수남로12번길 28(복수동),대전광역시 서구 복수동 689,생활방범,1,,360도 전방면,30,2011-09,042-288-2672,36.298161,127.380714,2019-01-04
"대전광역시 서구청",대전광역시 서구 복수남로 37(복수동),대전광역시 서구 복수동 752,생활방범,1,,360도 전방면,30,2011-09,042-288-2672,36.297753,127.376692,2019-01-04
"대전광역시 서구청",대전광역시 서구 복수동로 100-12(복수동),대전광역시 서구 복수동 815,생활방범,1,,360도 전방면,30,2011-09,042-288-2672,36.296064,127.376861,2019-01-04
"대전광역시 서구청",대전광역시 서구 복수남로11번길 21(복수동),대전광역시 서구 복수동 898,생활방범,1,,360도 전방면,30,2011-09,042-288-2672,36.296889,127.379578,2019-01-04
"대전광역시 서구청",대전광역시 서구 월평로14(월평동),대전광역시 서구 월평1동 1152,생활방범,1,,360도 전방면,30,2011-09,042-288-2672,36.355442,127.358972,2019-01-04
"대전광역시 서구청",대전광역시 서구 월평로27번길 1(월평동),대전광역시 서구 월평1동 405,생활방범,1,,360도 전방면,30,2011-09,042-288-2672,36.356969,127.360122,2019-01-04
"대전광역시 서구청",,대전광역시 서구 월평1동 801,생활방범,1,,360도 전방면,30,2011-09,042-288-2672,36.355367,127.365897,2019-01-04
"대전광역시 서구청",대전광역시 서구 갈마역로 139(월평동),대전광역시 서구 월평2동 221,생활방범,1,,360도 전방면,30,2011-09,042-288-2672,36.363369,127.374219,2019-01-04
"대전광역시 서구청",대전광역시 서구 월평동로 61(월평동),대전광역시 서구 월평3동 308,생활방범,1,,360도 전방면,30,2011-09,042-288-2672,36.361072,127.3676946,2019-01-04
"대전광역시 서구청",대전광역시 서구 청사로 27(월평동),대전광역시 서구 월평3동 310-2,생활방범,1,,360도 전방면,30,2011-09,042-288-2672,36.359875,127.366997,2019-01-04
"대전광역시 서구청",대전광역시 서구 월평동로 83(월평동),대전광역시 서구 월평3동 311,생활방범,1,,360도 전방면,30,2011-09,042-288-2672,36.361081,127.367014,2019-01-04
"대전광역시 서구청",대전광역시 서구 월평중로 55(월평동),대전광역시 서구 월평3동 313,생활방범,1,,360도 전방면,30,2011-09,042-288-2672,36.359672,127.363617,2019-01-04
"대전광역시 서구청",대전광역시 서구 계백로1300번길 43(정림동),대전광역시 서구 정림동 18-16,생활방범,1,,360도 전방면,30,2011-09,042-288-2672,36.3065141,127.3679338,2019-01-04
"대전광역시 서구청",대전광역시 서구 계백로1300번길 124(정림동),대전광역시 서구 정림동 19-4,생활방범,1,,360도 전방면,30,2011-09,042-288-2672,36.303022,127.3692576,2019-01-04
"대전광역시 서구청",대전광역시 서구 정림동로 8-6(정림동),대전광역시 서구 정림동 635,생활방범,1,,360도 전방면,30,2011-09,042-288-2672,36.3040266,127.3663961,2019-01-04
"대전광역시 서구청",대전광역시 서구 정림서로 162-18(정림동),대전광역시 서구 정림동 641,생활방범,1,,360도 전방면,30,2011-09,042-288-2672,36.3012388,127.3644891,2019-01-04
"대전광역시 서구청",대전광역시 서구 정림로 16-10(정림동),대전광역시 서구 정림동 668,생활방범,1,,360도 전방면,30,2011-09,042-288-2672,36.301867,127.366659,2019-01-04
"대전광역시 서구청",대전광역시 서구 남선로 23번길 30(탄방동),대전광역시 서구 탄방동 1051,생활방범,1,,360도 전방면,30,2011-09,042-288-2672,36.346608,127.395778,2019-01-04
"대전광역시 서구청",대전광역시 서구 남선로 66(탄방동),대전광역시 서구 탄방동 1084,생활방범,1,,360도 전방면,30,2011-09,042-288-2672,36.3461571,127.3977644,2019-01-04
"대전광역시 서구청",대전광역시 서구 탄방로 65(탄방동),대전광역시 서구 탄방동 59-14,생활방범,1,,360도 전방면,30,2011-09,042-288-2672,36.343014,127.394928,2019-01-04
"대전광역시 서구청",대전광역시 서구 계룡로571번길 65(탄방동),대전광역시 서구 탄방동 689,생활방범,1,,360도 전방면,30,2011-09,042-288-2672,36.3447379,127.3866528,2019-01-04
"대전광역시 서구청",대전광역시 서구 가수원로 91-11(가수원동),대전광역시 서구 가수원동 656-48,생활방범,1,,360도 전방면,30,2012-05,042-288-2672,36.3016337,127.3489369,2019-01-04
"대전광역시 서구청",대전광역시 서구 신갈마로211번안길 88(갈마1동),대전광역시 서구 갈마1동 358,생활방범,1,,360도 전방면,30,2012-05,042-288-2672,36.348517,127.364183,2019-01-04
"대전광역시 서구청",대전광역시 서구 갈마로 13-5(갈마2동),대전광역시 서구 갈마2동 308-15,생활방범,1,,360도 전방면,30,2012-05,042-288-2672,36.350908,127.369628,2019-01-04
"대전광역시 서구청",대전광역시 서구 갈마로125번길 35(갈마2동),대전광역시 서구 갈마2동 403-5,생활방범,1,,360도 전방면,30,2012-05,042-288-2672,36.343322,127.372914,2019-01-04
"대전광역시 서구청",대전광역시 서구 괴정로54번길 13(괴정동),대전광역시 서구 괴정동 67-6,생활방범,1,,360도 전방면,30,2012-05,042-288-2672,36.3402507,127.3809053,2019-01-04
"대전광역시 서구청",대전광역시 서구 도솔로305번길 58(괴정동),대전광역시 서구 괴정동 72-35,생활방범,1,,360도 전방면,30,2012-05,042-288-2672,36.3378234,127.3796279,2019-01-04
"대전광역시 서구청",대전광역시 서구 영골길 82-127(오동),대전광역시 서구 오동 355-7,생활방범,1,,360도 전방면,30,2012-06,042-288-2672,36.2257074,127.3093710,2019-01-04
"대전광역시 서구청",대전광역시 서구 신갈마로 55-5(내동),대전광역시 서구 내동 220-8,생활방범,1,,360도 전방면,30,2012-06,042-288-2672,36.3379159,127.3627822,2019-01-04
"대전광역시 서구청",대전광역시 서구 동서대로1014번길 25(내동),대전광역시 서구 내동 28-4,생활방범,1,,360도 전방면,30,2012-06,042-288-2672,36.3314331,127.3743588,2019-01-04
"대전광역시 서구청",대전광역시 서구 도마14길 28(도마1동),대전광역시 서구 도마1동 52-30,생활방범,1,,360도 전방면,30,2012-06,042-288-2672,36.320478,127.382019,2019-01-04
"대전광역시 서구청",대전광역시 서구 배재로91번길 38-10(도마2동),대전광역시 서구 도마2동 330-12,생활방범,1,,360도 전방면,30,2012-06,042-288-2672,36.317512,127.369301,2019-01-04
"대전광역시 서구청",대전광역시 서구 문정로 171(둔산1동),대전광역시 서구 둔산1동 1513,생활방범,1,,360도 전방면,30,2012-06,042-288-2672,36.350172,127.393728,2019-01-04
"대전광역시 서구청",대전광역시 서구 둔지로 75(둔산2동),대전광역시 서구 둔산2동 957,생활방범,1,,360도 전방면,30,2012-06,042-288-2672,36.355939,127.375394,2019-01-04
"대전광역시 서구청",대전광역시 서구 둔산로 240(둔산3동),대전광역시 서구 둔산3동 1861,생활방범,1,,360도 전방면,30,2012-06,042-288-2672,36.351253,127.400736,2019-01-04
"대전광역시 서구청",대전광역시 서구 동서대로1080번길 37(변동),대전광역시 서구 변동 29-7,생활방범,1,,360도 전방면,30,2012-06,042-288-2672,36.3274540,127.3795219,2019-01-04
"대전광역시 서구청",대전광역시 서구 계룡로636번길 14-2(용문동),대전광역시 서구 용문동 589-18,생활방범,1,,360도 전방면,30,2012-06,042-288-2672,36.3385642,127.3919100,2019-01-04
"대전광역시 서구청",대전광역시 서구 계룡로264번길 28-20(월평동),대전광역시 서구 월평동 19-16,생활방범,3,,360도 전방면,30,2012-06,042-288-2672,36.3522834,127.3602285,2019-01-04
"대전광역시 서구청",대전광역시 서구 월평중로4번길 5(월평1동),대전광역시 서구 월평1동 841,생활방범,1,,360도 전방면,30,2012-06,042-288-2672,36.354697,127.364531,2019-01-04
"대전광역시 서구청",대전광역시 서구 월평북로 87(월평2동),대전광역시 서구 월평2동 238,생활방범,1,,360도 전방면,30,2012-06,042-288-2672,36.362258,127.378156,2019-01-04
"대전광역시 서구청",대전광역시 서구 청사로 70(월평3동),대전광역시 서구 월평3동,생활방범,1,,360도 전방면,30,2012-06,042-288-2672,36.357814,127.371356,2019-01-04
"대전광역시 서구청",대전광역시 서구 계백로1249번길 84(정림동),대전광역시 서구 정림동 238-9,생활방범,1,,360도 전방면,30,2012-06,042-288-2672,36.3097670,127.358588,2019-01-04
"대전광역시 서구청",대전광역시 서구 정림서로 201-5(정림동),대전광역시 서구 정림동 421,생활방범,1,,360도 전방면,30,2012-12,042-288-2672,36.305395,127.361975084,2019-01-04
"대전광역시 서구청",대전광역시 서구 정림서로 162-15(정림동),대전광역시 서구 정림동 639,생활방범,1,,360도 전방면,30,2012-12,042-288-2672,36.3034815,127.3645633,2019-01-04
"대전광역시 서구청",대전광역시 서구 남선로 14(탄방동),대전광역시 서구 탄방동 1083,생활방범,1,,360도 전방면,30,2012-12,042-288-2672,36.3443209,127.3967893,2019-01-04
"대전광역시 서구청",대전광역시 서구 남선로60번길 33(탄방동),대전광역시 서구 탄방동 1307,생활방범,1,,360도 전방면,30,2012-12,042-288-2672,36.3485625,127.4006325,2019-01-04
"대전광역시 서구청",대전광역시 서구 도솔로483번길 101(탄방동),대전광역시 서구 탄방동 1379,생활방범,1,,360도 전방면,30,2012-12,042-288-2672,36.345545,127.400014,2019-01-04
"대전광역시 서구청",대전광역시 서구 가수원로65번길 47(가수원동),대전광역시 서구 가수원동 780-6,생활방범,1,,360도 전방면,30,2012-06,042-288-2672,36.2986044,127.351221,2019-01-04
"대전광역시 서구청",대전광역시 서구 가수원중로65번길 22(가수원동),대전광역시 서구 가수원동 802-1,생활방범,1,,360도 전방면,30,2012-06,042-288-2672,36.2980750,127.3521552,2019-01-04
"대전광역시 서구청",,대전광역시 서구 가장동27-1,생활방범,1,,360도 전방면,30,2012-06,042-288-2672,36.329684,127.388687,2019-01-04
"대전광역시 서구청",대전광역시 서구 갈마로295번길 49(가장동),대전광역시 서구 가장동 47-30,생활방범,1,,360도 전방면,30,2012-06,042-288-2672,36.332497,127.3870232,2019-01-04
"대전광역시 서구청",대전광역시 서구 계룡로326번길 147(갈마1동),대전광역시 서구 갈마1동 368-15,생활방범,1,,360도 전방면,30,2012-06,042-288-2672,36.3475085,127.365628,2019-01-04
"대전광역시 서구청",대전광역시 서구 신갈마로86번길 64(갈마1동),대전광역시 서구 갈마1동,생활방범,1,,360도 전방면,30,2012-06,042-288-2672,36.341953,127.370778,2019-01-04
"대전광역시 서구청",대전광역시 서구 한밭대로656번길 10(갈마1동),대전광역시 서구 갈마1동 775,생활방범,1,,360도 전방면,30,2012-06,042-288-2672,36.357286,127.372056,2019-01-04
"대전광역시 서구청",대전광역시 서구 갈마중로8번길 23(갈마2동),대전광역시 서구 갈마2동 352-19,생활방범,1,,360도 전방면,30,2012-06,042-288-2672,36.346256,127.370681,2019-01-04
"대전광역시 서구청",대전광역시 서구 관저동로 164(관저1동),대전광역시 서구 관저1동 1898,생활방범,1,,360도 전방면,30,2012-06,042-288-2672,36.307108,127.340736,2019-01-04
"대전광역시 서구청",대전광역시 서구 관저로129번길 26(관저2동),대전광역시 서구 관저2동 1063,생활방범,1,,360도 전방면,30,2012-06,042-288-2672,36.2998801,127.336383,2019-01-04
"대전광역시 서구청",대전광역시 서구 관저서로 47(관저2동),대전광역시 서구 관저2동 1146,생활방범,2,,360도 전방면,30,2012-06,042-288-2672,36.296322,127.329958,2019-01-04
"대전광역시 서구청",대전광역시 서구 관저서로 70(관저2동),대전광역시 서구 관저2동 1147,생활방범,1,,360도 전방면,30,2012-06,042-288-2672,36.298856,127.329419,2019-01-04
"대전광역시 서구청",대전광역시 서구 관저서로 70(관저2동),대전광역시 서구 관저2동 1147,생활방범,1,,360도 전방면,30,2012-06,042-288-2672,36.298753,127.330344,2019-01-04
"대전광역시 서구청",대전광역시 서구 구봉로147번길 64(관저2동),대전광역시 서구 관저2동 1342,생활방범,1,,360도 전방면,30,2012-06,042-288-2672,36.299375,127.338319,2019-01-04
"대전광역시 서구청",대전광역시 서구 신갈마로 8-22(내동),대전광역시 서구 내동 152-17,생활방범,1,,360도 전방면,30,2012-06,042-288-2672,36.3351242,127.3686317,2019-01-04
"대전광역시 서구청",대전광역시 서구 도솔로 190(도마1동),대전광역시 서구 도마1동 17-47,생활방범,1,,360도 전방면,30,2012-06,042-288-2672,36.3274834,127.374322,2019-01-04
"대전광역시 서구청",대전광역시 서구 용화1길 81(도마1동),대전광역시 서구 도마1동 43-36,생활방범,1,,360도 전방면,30,2012-06,042-288-2672,36.3216454,127.375797,2019-01-04
"대전광역시 서구청",대전광역시 서구 조달청길 180(도마1동),대전광역시 서구 도마1동 93-2,생활방범,1,,360도 전방면,30,2012-06,042-288-2672,36.319169,127.382031,2019-01-04
"대전광역시 서구청",,대전광역시 서구 둔산1동 1385,생활방범,1,,360도 전방면,30,2012-06,042-288-2672,36.355122,127.394758,2019-01-04
"대전광역시 서구청",대전광역시 서구 계룡로491번길 28(둔산2동),대전광역시 서구 둔산2동 1234,생활방범,1,,360도 전방면,30,2012-06,042-288-2672,36.346728,127.381606,2019-01-04
"대전광역시 서구청",,대전광역시 서구 둔산2동 1379,생활방범,1,,360도 전방면,30,2012-06,042-288-2672,36.356119,127.384628,2019-01-04
"대전광역시 서구청",대전광역시 서구 청사로 254(둔산2동),대전광역시 서구 둔산2동 912,생활방범,1,,360도 전방면,30,2012-06,042-288-2672,36.358847,127.393558,2019-01-04
"대전광역시 서구청",대전광역시 서구 둔산북로 232-33(둔산3동),대전광역시 서구 둔산3동 1807,생활방범,1,,360도 전방면,30,2012-06,042-288-2672,36.353328,127.401767,2019-01-04
"대전광역시 서구청",대전광역시 서구 만년남로11번길 50(만년동),대전광역시 서구 만년동 156,생활방범,1,,360도 전방면,30,2012-06,042-288-2672,36.3663900,127.3739120,2019-01-04
"대전광역시 서구청",대전광역시 서구 만년남로 14(만년동),대전광역시 서구 만년동 280,생활방범,1,,360도 전방면,30,2012-06,042-288-2672,36.3671313,127.3772881,2019-01-04
"대전광역시 서구청",대전광역시 서구 복수중로34번길 29(복수동),대전광역시 서구 복수동 272,생활방범,1,,360도 전방면,30,2012-06,042-288-2672,36.3075010,127.3775666,2019-01-04
"대전광역시 서구청",,대전광역시 서구 복수동 453,생활방범,1,,360도 전방면,30,2012-06,042-288-2672,36.238622,127.317439,2019-01-04
"대전광역시 서구청",대전광역시 서구 복수남로 6(복수동),대전광역시 서구 복수동 729,생활방범,1,,360도 전방면,30,2012-06,042-288-2672,36.2972839,127.3805904,2019-01-04
"대전광역시 서구청",,대전광역시 서구 복수동 794,생활방범,1,,360도 전방면,30,2012-06,042-288-2672,36.238622,127.317439,2019-01-04
"대전광역시 서구청",,대전광역시 서구 복수동 906,생활방범,1,,360도 전방면,30,2012-06,042-288-2672,36.295853,127.3792564,2019-01-04
"대전광역시 서구청",대전광역시 서구 유등로 3(복수동),대전광역시 서구 복수동 968,생활방범,1,,360도 전방면,30,2012-06,042-288-2672,36.293925,127.378361,2019-01-04
"대전광역시 서구청",대전광역시 서구 아랫강변4길 68(용문동),대전광역시 서구 용문동 232-1,생활방범,1,,360도 전방면,30,2012-06,042-288-2672,36.339783,127.3986617,2019-01-04
"대전광역시 서구청",대전광역시 서구 용문로 104용문동),대전광역시 서구 용문동 281-1,생활방범,1,,360도 전방면,30,2012-06,042-288-2672,36.334997,127.392853,2019-01-04
"대전광역시 서구청",대전광역시 서구 월평로27번길 15(월평1동),대전광역시 서구 월평1동 443,생활방범,1,,360도 전방면,30,2012-06,042-288-2672,36.357464,127.360267,2019-01-04
"대전광역시 서구청",대전광역시 서구 월평중로4번길 21(월평1동),대전광역시 서구 월평1동 815,생활방범,1,,360도 전방면,30,2012-06,042-288-2672,36.354686,127.365278,2019-01-04
"대전광역시 서구청",대전광역시 서구 청사로 65(월평3동),대전광역시 서구 월평3동 302,생활방범,1,,360도 전방면,30,2012-06,042-288-2672,36.362183,127.371483,2019-01-04
"대전광역시 서구청",대전광역시 서구 정림로10번길 41(정림동),대전광역시 서구 정림동 28-33,생활방범,1,,360도 전방면,30,2012-06,042-288-2672,36.302378,127.3683940,2019-01-04
"대전광역시 서구청",대전광역시 서구 계백로1300번길 36(정림동),대전광역시 서구 정림동 124-6,생활방범,1,,360도 전방면,30,2012-06,042-288-2672,36.3068449,127.367689,2019-01-04
"대전광역시 서구청",대전광역시 서구 구봉로 419(정림동),대전광역시 서구 정림동 683,생활방범,1,,360도 전방면,30,2012-06,042-288-2672,36.3003743,127.3661395,2019-01-04
"대전광역시 서구청",대전광역시 서구 도솔로 454(탄방동),대전광역시 서구 탄방동 66-3,생활방범,1,,360도 전방면,30,2012-06,042-288-2672,36.3437059,127.3942329,2019-01-04
"대전광역시 서구청",대전광역시 서구 문정로112번길 48(탄방동),대전광역시 서구 탄방동 812,생활방범,1,,360도 전방면,30,2012-06,042-288-2672,36.3447071,127.3910145,2019-01-04
"대전광역시 서구청",,대전광역시 서구 관저2동 862-8,생활방범,2,,360도 전방면,30,2012-04,042-288-2672,36.286453,127.318756,2019-01-04
"대전광역시 서구청",,대전광역시 서구 관저2동 872-9,생활방범,2,,360도 전방면,30,2012-04,042-288-2672,36.288753,127.321094,2019-01-04
"대전광역시 서구청",,대전광역시 서구 가수원동-도안동 244,생활방범,3,,360도 전방면,30,2012-04,042-288-2672,36.323903,127.347736,2019-01-04
"대전광역시 서구청",대전광역시 서구 들말4길 24(가장동),대전광역시 서구 가장동 40-6,생활방범,1,,360도 전방면,30,2013-05,042-288-2672,36.3294505,127.3842821,2019-01-04
"대전광역시 서구청",대전광역시 서구 갈마중로 43(갈마2동),대전광역시 서구 갈마2동 985,생활방범,1,,360도 전방면,30,2013-05,042-288-2672,36.347682,127.374143,2019-01-04
"대전광역시 서구청",,대전광역시 서구 관저1동 1000,생활방범,1,,360도 전방면,30,2013-05,042-288-2672,36.303581,127.339033,2019-01-04
"대전광역시 서구청",,대전광역시 서구 관저1동 1004,생활방범,1,,좌우양방향,30,2013-05,042-288-2672,36.309547,127.335547,2019-01-04
"대전광역시 서구청",,대전광역시 서구 관저1동 985,생활방범,1,,360도 전방면,30,2013-05,042-288-2672,36.309297,127.338661,2019-01-04
"대전광역시 서구청",,대전광역시 서구 관저1동 991,생활방범,1,,360도 전방면,30,2013-05,042-288-2672,36.306314,127.338886,2019-01-04
"대전광역시 서구청",,대전광역시 서구 관저2동 1145,생활방범,1,,360도 전방면,30,2013-05,042-288-2672,36.297231,127.328633,2019-01-04
"대전광역시 서구청",,대전광역시 서구 관저2동 1149,생활방범,1,,360도 전방면,30,2013-05,042-288-2672,36.297547,127.331097,2019-01-04
"대전광역시 서구청",,대전광역시 서구 관저2동 1421,생활방범,1,,좌우양방향,30,2013-05,042-288-2672,36.301854,127.343245,2019-01-04
"대전광역시 서구청",대전광역시 서구 계백로776번길 115(관저2동),대전광역시 서구 관저2동 842-2,생활방범,1,,360도 전방면,30,2013-05,042-288-2672,36.284675,127.322228,2019-01-04
"대전광역시 서구청",대전광역시 서구 도솔로 173(도마1동),대전광역시 서구 도마1동 19-1,생활방범,1,,360도 전방면,30,2013-05,042-288-2672,36.3260300,127.373922,2019-01-04
"대전광역시 서구청",대전광역시 서구 오량4길 29(복수동),대전광역시 서구 복수동 283-12,생활방범,1,,360도 전방면,30,2013-05,042-288-2672,36.309328,127.377358,2019-01-04
"대전광역시 서구청",대전광역시 서구 정림로24번길 83(정림동),대전광역시 서구 정림동 20-1,생활방범,1,,360도 전방면,30,2013-05,042-288-2672,36.3036239,127.370394,2019-01-04
"대전광역시 서구청",대전광역시 서구 정림서로 162-15(정림동),대전광역시 서구 정림동 639,생활방범,1,,360도 전방면,30,2013-05,042-288-2672,36.3034815,127.3645633,2019-01-04
"대전광역시 서구청",,대전광역시 서구 정림동 87,생활방범,1,,360도 전방면,30,2013-05,042-288-2672,36.289917,127.361883,2019-01-04
"대전광역시 서구청",대전광역시 서구 탄방로 35 (탄방동),대전광역시 서구 탄방동 191-3,생활방범,1,,360도 전방면,30,2013-05,042-288-2672,36.344136,127.392522,2019-01-04
"대전광역시 서구청",,대전광역시 서구 탄방동 593,생활방범,1,,360도 전방면,30,2013-05,042-288-2672,36.346978,127.384967,2019-01-04
"대전광역시 서구청",대전광역시 서구 문정로90번길 60(탄방동),대전광역시 서구 탄방동 765,생활방범,1,,360도 전방면,30,2013-05,042-288-2672,36.3447571,127.3882814,2019-01-04
"대전광역시 서구청",대전광역시 서구 월평로37번길 30(월평1동),대전광역시 서구 월평1동 430,생활방범,1,,360도 전방면,30,2013-06,042-288-2672,36.357836,127.361497,2019-01-04
"대전광역시 서구청",대전광역시 서구 계백로1037번길 51(정림동),대전광역시 서구 정림동 265-8,생활방범,1,,360도 전방면,30,2013-06,042-288-2672,36.3109204,127.3674528,2019-01-04
"대전광역시 서구청",대전광역시 서구 도산로282번길 90(가장동),대전광역시 서구 가장동 31-1,생활방범,1,,360도 전방면,30,2013-11,042-288-2672,36.3288615,127.388442,2019-01-04
"대전광역시 서구청",대전광역시 서구 갈마로역11번길 5(갈마1동),대전광역시 서구 갈마1동 900,생활방범,1,,360도 전방면,30,2013-11,042-288-2672,36.351622,127.373164,2019-01-04
"대전광역시 서구청",대전광역시 서구 대덕대로111번길 53(갈마2동),대전광역시 서구 갈마2동 403-24,생활방범,1,,360도 전방면,30,2013-11,042-288-2672,36.343111,127.371706,2019-01-04
"대전광역시 서구청",,대전광역시 서구 관저2동 1129,생활방범,1,,360도 전방면,30,2013-11,042-288-2672,36.300953,127.329586,2019-01-04
"대전광역시 서구청",대전광역시 서구 괴정로133번길 44(용문동),대전광역시 서구 용문동 268-15,생활방범,1,,360도 전방면,30,2013-11,042-288-2672,36.3377498,127.3887962,2019-01-04
"대전광역시 서구청",대전광역시 서구 동서대로1005번길 69(내동),대전광역시 서구 내동 37-32,생활방범,1,,360도 전방면,30,2013-11,042-288-2672,36.3354418,127.376422,2019-01-04
"대전광역시 서구청",대전광역시 서구 도마로 19(도마1동),대전광역시 서구 도마1동 30-14,생활방범,1,,360도 전방면,30,2013-11,042-288-2672,36.322467,127.372303,2019-01-04
"대전광역시 서구청",,대전광역시 서구 변동 57-1,생활방범,1,,360도 전방면,30,2013-11,042-288-2672,36.323571,127.376498,2019-01-04
"대전광역시 서구청",대전광역시 서구 월평새뜸로20번길(월평1동),대전광역시 서구 월평1동 1461,생활방범,1,,360도 전방면,30,2013-11,042-288-2672,36.352886,127.353281,2019-01-04
"대전광역시 서구청",대전광역시 서구 계룡로615번길 30(탄방동),대전광역시 서구 탄방동 85-22,생활방범,1,,360도 전방면,30,2013-11,042-288-2672,36.340956,127.3924495,2019-01-04
"대전광역시 서구청",대전광역시 서구 만년남로11번길 76(만년동),대전광역시 서구 만년동 66,생활방범,1,,360도 전방면,30,2013-11,042-288-2672,36.366242,127.372319,2019-01-04
"대전광역시 서구청",,대전광역시 서구 복수동 333,생활방범,2,,360도 전방면,30,2013-06,042-288-2672,36.3028797,127.3753808,2019-01-04
"대전광역시 서구청",,대전광역시 서구 도마2동 359-12,생활방범,2,,360도 전방면,30,2013-06,042-288-2672,36.318522,127.371253,2019-01-04
"대전광역시 서구청",,대전광역시 서구 월평1동 1-3,생활방범,4,,360도 전방면,30,2013-06,042-288-2672,36.353839,127.361994,2019-01-04
"대전광역시 서구청",,대전광역시 서구 복수동 270-43,생활방범,2,,360도 전방면,30,2014-06,042-288-2672,36.307236,127.378414,2019-01-04
"대전광역시 서구청",대전광역시 서구 변동중로 24(도마1동),대전광역시 서구 도마1동 16-39,생활방범,1,,360도 전방면,30,2014-06,042-288-2672,36.326316,127.372448,2019-01-04
"대전광역시 서구청",대전광역시 서구 정림동로20번길 1(정림동),대전광역시 서구 정림동 131-3,생활방범,1,,360도 전방면,30,2014-06,042-288-2672,36.3046781,127.3677448,2019-01-04
"대전광역시 서구청",대전광역시 서구 중반3길 79(변동),대전광역시 서구 변동 9-56,생활방범,1,,좌우양방향,30,2014-06,042-288-2672,36.3255263,127.3838998,2019-01-04
"대전광역시 서구청",대전광역시 서구 문예로 107(둔산1동),대전광역시 서구 둔산1동 1381,생활방범,1,,360도 전방면,30,2014-06,042-288-2672,36.357436,127.389736,2019-01-04
"대전광역시 서구청",대전광역시 서구 유등로 879(둔산2동),대전광역시 서구 둔산2동 907-1,생활방범,1,,360도 전방면,30,2014-06,042-288-2672,36.363683,127.392653,2019-01-04
"대전광역시 서구청",대전광역시 서구 대덕대로 270(둔산2동),대전광역시 서구 둔산2동 1375,생활방범,1,,360도 전방면,30,2014-06,042-288-2672,36.357386,127.376903,2019-01-04
"대전광역시 서구청",대전광역시 서구 문정로170번길 8(둔산3동),대전광역시 서구 둔산3동 1833,생활방범,1,,360도 전방면,30,2014-06,042-288-2672,36.349436,127.396264,2019-01-04
"대전광역시 서구청",대전광역시 서구 도산로321번길 18(가장동),대전광역시 서구 가장동 56-6,생활방범,1,,360도 전방면,30,2014-06,042-288-2672,36.3355333,127.3869723,2019-01-04
"대전광역시 서구청",대전광역시 서구 신갈마로 58-22(갈마1동),대전광역시 서구 갈마1동 264-24,생활방범,3,,360도 전방면,30,2014-06,042-288-2672,36.340108,127.368236,2019-01-04
"대전광역시 서구청",대전광역시 서구 도솔로 257(내동),대전광역시 서구 내동 19-24,생활방범,1,,360도 전방면,30,2014-06,042-288-2672,36.3327577,127.3781120,2019-01-04
"대전광역시 서구청",대전광역시 서구 신갈마로230번길 41(갈마1동),대전광역시 서구 갈마1동 264-24,생활방범,2,,360도 전방면,30,2014-06,042-288-2672,36.354022,127.371597,2019-01-04
"대전광역시 서구청",대전광역시 서구 괴정로11번길 72(갈마2동),대전광역시 서구 갈마2동 1327,생활방범,1,,360도 전방면,30,2014-06,042-288-2672,36.342047,127.375919,2019-01-04
"대전광역시 서구청",대전광역시 서구 갈마로117번길 52(갈마2동),대전광역시 서구 갈마2동 405-17,생활방범,1,,360도 전방면,30,2014-06,042-288-2672,36.3444490,127.370878,2019-01-04
"대전광역시 서구청",대전광역시 서구 월평로13번길 28(월평1동),대전광역시 서구 월평1동 362,생활방범,3,,360도 전방면,30,2014-06,042-288-2672,36.356603,127.358069,2019-01-04
"대전광역시 서구청",대전광역시 서구 월평북로 41(월평2동),대전광역시 서구 월평2동 220,생활방범,1,,360도 전방면,30,2014-06,042-288-2672,36.363372,127.371533,2019-01-04
"대전광역시 서구청",대전광역시 서구 둔산대로117번길 106-27(만년동),대전광역시 서구 만년동 395,생활방범,1,,360도 전방면,30,2014-06,042-288-2672,36.3707038,127.3819591,2019-01-04
"대전광역시 서구청",대전광역시 서구 계백로 1095(가수원동),대전광역시 서구 가수원동 841,생활방범,1,,360도 전방면,30,2014-06,042-288-2672,36.3044565535,127.345804705,2019-01-04
"대전광역시 서구청",대전광역시 서구 관저북로 94,대전광역시 서구 관저1동 47-7,생활방범,1,,360도 전방면,30,2014-06,042-288-2672,36.3107441,127.3380408,2019-01-04
"대전광역시 서구청",,대전광역시 서구 관저1동 1662,생활방범,1,,360도 전방면,30,2014-06,042-288-2672,36.306379,127.333129,2019-01-04
"대전광역시 서구청",대전광역시 서구 조련길 67 (흑석동),대전광역시 서구,생활방범,3,,360도 전방면,30,2014-06,042-288-2672,36.252178,127.344273,2019-01-04
"대전광역시 서구청",대전광역시 서구 갈마중로 16번길 18(갈마동),대전광역시 서구 갈마동 352-4,생활방범,3,,360도 전방면,30,2015-01,042-288-2672,36.3468282,127.3709347,2019-01-04
"대전광역시 서구청",대전광역시 서구 월평서로 6번길 66(월평동),대전광역시 서구 월평동 933,생활방범,3,,360도 전방면,30,2015-01,042-288-2672,36.3546905,127.3624081,2019-01-04
"대전광역시 서구청",,대전광역시 서구 괴곡동 157번지 인근,생활방범,3,,360도 전방면,30,2015-01,042-288-2672,36.278628,127.365836,2019-01-04
"대전광역시 서구청",,대전광역시 서구 장안동 299번지,생활방범,3,,360도 전방면,30,2015-01,042-288-2672,36.220798,127.338307,2019-01-04
"대전광역시 서구청",대전광역시 서구 가수원로65번길 18(가수원동),대전광역시 서구 가수원동 641-39,생활방범,3,,360도 전방면,30,2015-01,042-288-2672,36.2995093,127.3505712,2019-01-04
"대전광역시 서구청",대전광역시 서구 들말 6길 38(가장동),대전광역시 서구 가장동 33-14,생활방범,3,,360도 전방면,30,2015-01,042-288-2672,36.3288367,127.3861905,2019-01-04
"대전광역시 서구청",대전광역시 서구 중반 2길 57(변동),대전광역시 서구 변동 35-23,생활방범,3,,360도 전방면,30,2015-01,042-288-2672,36.325224,127.3821155,2019-01-04
"대전광역시 서구청",,대전광역시 서구 도안동 450-1,생활방범,1,,360도 전방면,30,2015-08,042-288-2672,36.331865,127.344801,2019-01-04
"대전광역시 서구청",대전광역시 서구 동서대로 686(도안동),대전광역시 서구 도안동 707,생활방범,1,,360도 전방면,30,2015-08,042-288-2672,36.33159976,127.3389266,2019-01-04
"대전광역시 서구청",대전광역시 서구 도안동로 277(도안동),대전광역시 서구 도안동 837-1,생활방범,1,,360도 전방면,30,2015-08,042-288-2672,36.33058678,127.3477494,2019-01-04
"대전광역시 서구청",대전광역시 서구 도안북로 113(도안동),대전광역시 서구 도안동 897,생활방범,1,,360도 전방면,30,2015-08,042-288-2672,36.330253955,127.34134784,2019-01-04
"대전광역시 서구청",,대전광역시 서구 도안동 521-2,생활방범,1,,360도 전방면,30,2015-08,042-288-2672,36.32852765,127.3459766,2019-01-04
"대전광역시 서구청",대전광역시 서구 도안북로 118번길 41(도안동),대전광역시 서구 도안동 928,생활방범,1,,360도 전방면,30,2015-08,042-288-2672,36.3281547754,127.341779717,2019-01-04
"대전광역시 서구청",,대전광역시 서구 도안동 968(산17-1,생활방범,1,,360도 전방면,30,2015-08,042-288-2672,36.32722002,127.3452724,2019-01-04
"대전광역시 서구청",,대전광역시 서구 도안동 996,생활방범,1,,360도 전방면,30,2015-08,042-288-2672,36.32616698,127.3456668,2019-01-04
"대전광역시 서구청",대전광역시 서구 원도안로 259(도안동),대전광역시 서구 도안동 1052,생활방범,1,,360도 전방면,30,2015-08,042-288-2672,36.3258204787,127.34748942,2019-01-04
"대전광역시 서구청",,대전광역시 서구 도안동 1144,생활방범,1,,360도 전방면,30,2015-08,042-288-2672,36.32502657,127.3454812,2019-01-04
"대전광역시 서구청",대전광역시 서구 원도안로 200(도안동),대전광역시 서구 도안동 1363,생활방범,1,,360도 전방면,30,2015-08,042-288-2672,36.3216343,127.3446688,2019-01-04
"대전광역시 서구청",,대전광역시 서구 도안동 1338,생활방범,1,,360도 전방면,30,2015-08,042-288-2672,36.3210516153,127.342430236,2019-01-04
"대전광역시 서구청",,대전광역시 서구 도안동 1526,생활방범,1,,360도 전방면,30,2015-08,042-288-2672,36.32087466,127.3476219,2019-01-04
"대전광역시 서구청",대전광역시 서구 원도안로 200(도안동),대전광역시 서구 도안동 1363,생활방범,1,,360도 전방면,30,2015-08,042-288-2672,36.3216343,127.3446688,2019-01-04
"대전광역시 서구청",,대전광역시 서구 도안동 1279,생활방범,1,,360도 전방면,30,2015-08,042-288-2672,36.32017735,127.3432022,2019-01-04
"대전광역시 서구청",,대전광역시 서구 도안동 1534,생활방범,1,,360도 전방면,30,2015-08,042-288-2672,36.31902319,127.347655,2019-01-04
"대전광역시 서구청",,대전광역시 서구 도안동 1355,생활방범,1,,360도 전방면,30,2015-08,042-288-2672,36.31920745,127.3421365,2019-01-04
"대전광역시 서구청",,대전광역시 서구 도안동 1265,생활방범,1,,360도 전방면,30,2015-08,042-288-2672,36.318864,127.343948298,2019-01-04
"대전광역시 서구청",대전광역시 서구 원도안로 160(도안동),대전광역시 서구 도안동 1367 도안중정문,생활방범,1,,360도 전방면,30,2015-08,042-288-2672,36.318137,127.34579312,2019-01-04
"대전광역시 서구청",,대전광역시 서구 도안동171-1,생활방범,1,,360도 전방면,30,2015-08,042-288-2672,36.317207,127.346624,2019-01-04
"대전광역시 서구청",,대전광역시 서구 도안동 86-4,생활방범,1,,360도 전방면,30,2015-08,042-288-2672,36.31587824,127.3452548,2019-01-04
"대전광역시 서구청",,대전광역시 서구 도안동 1401,생활방범,1,,360도 전방면,30,2015-08,042-288-2672,36.31483882,127.350475,2019-01-04
"대전광역시 서구청",대전광역시 서구 도안중로 305번길 6(도안동),대전광역시 서구 도안동 1472,생활방범,1,,360도 전방면,30,2015-08,042-288-2672,36.3129173073,127.350598952,2019-01-04
"대전광역시 서구청",대전광역시 서구 원도안로 80(도안동),대전광역시 서구 도안동 1563,생활방범,1,,360도 전방면,30,2015-08,042-288-2672,36.3112141742,127.347478039,2019-01-04
"대전광역시 서구청",,대전광역시 서구 가수원동 689,생활방범,1,,360도 전방면,30,2015-08,042-288-2672,36.311117,127.344827,2019-01-04
"대전광역시 서구청",대전광역시 서구 용소로 43번길(가수원동),대전광역시 서구 가수원동 1091,생활방범,1,,360도 전방면,30,2015-08,042-288-2672,36.31093002,127.3521251,2019-01-04
"대전광역시 서구청",,대전광역시 서구 가수원동 1101,생활방범,1,,360도 전방면,30,2015-08,042-288-2672,36.31042781,127.3528204,2019-01-04
"대전광역시 서구청",,대전광역시 서구 가수원동 838,생활방범,1,,360도 전방면,30,2015-08,042-288-2672,36.31014812,127.3470991,2019-01-04
"대전광역시 서구청",,대전광역시 서구 가수원동 1149,생활방범,1,,360도 전방면,30,2015-08,042-288-2672,36.3093894046,127.352667542,2019-01-04
"대전광역시 서구청",,대전광역시 서구 가수원동 243-3,생활방범,1,,360도 전방면,30,2015-08,042-288-2672,36.238622,127.317439,2019-01-04
"대전광역시 서구청",대전광역시 서구 원도안로25번길 97(가수원동),대전광역시 서구 가수원동 845,생활방범,1,,360도 전방면,30,2015-08,042-288-2672,36.3090265596,127.347321358,2019-01-04
"대전광역시 서구청",,대전광역시 서구 가수원동 686-4,생활방범,1,,360도 전방면,30,2015-08,042-288-2672,36.308497,127.342818,2019-01-04
"대전광역시 서구청",대전광역시 서구 도안동로31번길 12-22(가수원동),대전광역시 서구 가수원동 927,생활방범,1,,360도 전방면,30,2015-08,042-288-2672,36.3086471567,127.351332522,2019-01-04
"대전광역시 서구청",,대전광역시 서구 가수원동 925,생활방범,1,,360도 전방면,30,2015-08,042-288-2672,36.308005,127.349327,2019-01-04
"대전광역시 서구청",대전광역시 서구 용소로 46번길(가수원동),대전광역시 서구 가수원동 1237,생활방범,1,,360도 전방면,30,2015-08,042-288-2672,36.30787296,127.3538723,2019-01-04
"대전광역시 서구청",대전광역시 서구 봉우로 56번길(관저1동),대전광역시 서구 관저1동 1647,생활방범,1,,360도 전방면,30,2015-08,042-288-2672,36.30745591,127.3328772,2019-01-04
"대전광역시 서구청",대전광역시 서구 관저북로 51번길 8-23(관저1동),대전광역시 서구 관저1동 1828,생활방범,1,,360도 전방면,30,2015-08,042-288-2672,36.30749388,127.3366866,2019-01-04
"대전광역시 서구청",대전광역시 서구 용소로 40번길(가수원동),대전광역시 서구 가수원동 1358,생활방범,1,,360도 전방면,30,2015-08,042-288-2672,36.30677515,127.3530345,2019-01-04
"대전광역시 서구청",대전광역시 서구 원도안로 26번길 11(가수원동),대전광역시 서구 가수원동 899,생활방범,1,,360도 전방면,30,2015-08,042-288-2672,36.3067508499,127.3489225,2019-01-04
"대전광역시 서구청",,대전광역시 서구 관저동 1919,생활방범,1,,360도 전방면,30,2015-08,042-288-2672,36.238622,127.317439,2019-01-04
"대전광역시 서구청",,대전광역시 서구 가수원동 194-7,생활방범,1,,360도 전방면,30,2015-08,042-288-2672,36.30636127,127.3555606,2019-01-04
"대전광역시 서구청",,대전광역시 서구 가수원동 1052,생활방범,1,,360도 전방면,30,2015-08,042-288-2672,36.3050185366,127.350875342,2019-01-04
"대전광역시 서구청",,대전광역시 서구 가수원동 417-2,생활방범,1,,360도 전방면,30,2015-08,042-288-2672,36.30461824,127.3475284,2019-01-04
"대전광역시 서구청",대전광역시 서구 봉우로 30번길(관저1동),대전광역시 서구 관저1동 1737,생활방범,1,,360도 전방면,30,2015-08,042-288-2672,36.30414213,127.336534,2019-01-04
"대전광역시 서구청",대전광역시 서구 계백로 1095(가수원동),대전광역시 서구 가수원동 841,생활방범,1,,360도 전방면,30,2015-08,042-288-2672,36.3044565535,127.345804705,2019-01-04
"대전광역시 서구청",,대전광역시 서구 관저동 1735,생활방범,1,,360도 전방면,30,2015-08,042-288-2672,36.303655,127.345097,2019-01-04
"대전광역시 서구청",,대전광역시 서구 관저동 1760,생활방범,1,,좌우양방향,30,2015-08,042-288-2672,36.30216685,127.3365246,2019-01-04
"대전광역시 서구청",대전광역시 서구 봉우로 8번길(관저1동),대전광역시 서구 관저1동 1748,생활방범,1,,좌우양방향,30,2015-08,042-288-2672,36.30210466,127.3333111,2019-01-04
"대전광역시 서구청",대전광역시 서구 청사로 70(월평동),대전광역시 서구 월평동 301,생활방범,3,,360도 전방면,30,2015-06,042-288-2672,36.3588693,127.3713615,2019-01-04
"대전광역시 서구청",대전광역시 서구 남선로 66(탄방동),대전광역시 서구 탄방동 1084,생활방범,3,,좌우양방향,30,2015-06,042-288-2672,36.3461571,127.3977644,2019-01-04
"대전광역시 서구청",대전광역시 서구 문정로 112안길 32(탄방동),대전광역시 서구 탄방동 909,생활방범,2,,좌우양방향,30,2015-06,042-288-2672,36.3456664,127.3934000,2019-01-04
"대전광역시 서구청",대전광역시 서구 도솔길 357번길 17(괴정동),대전광역시 서구 괴정동 60-8,생활방범,3,,좌우양방향,30,2015-06,042-288-2672,36.3395336,127.3853268,2019-01-04
"대전광역시 서구청",대전광역시 서구 신갈마로 209번길 16(갈마동),대전광역시 서구 갈마동 293-21,생활방범,3,,좌우양방향,30,2015-06,042-288-2672,36.3523603,127.3675634,2019-01-04
"대전광역시 서구청",대전광역시 서구 신갈마로211번안길 51(갈마동),대전광역시 서구 갈마동 328-1,생활방범,2,,좌우양방향,30,2015-06,042-288-2672,36.3508469,127.3641385,2019-01-04
"대전광역시 서구청",대전광역시 서구 갈마역로 55(갈마동),대전광역시 서구 갈마동 820,생활방범,3,,좌우양방향,30,2015-06,042-288-2672,36.3555081,127.3740078,2019-01-04
"대전광역시 서구청",대전광역시 서구 계룡로686번길 45(용문동),대전광역시 서구 용문동 252-13,생활방범,3,,좌우양방향,30,2015-06,042-288-2672,36.3340165,127.394777,2019-01-04
"대전광역시 서구청",대전광역시 서구 탄방로 142(용문동),대전광역시 서구 용문동 235-8,생활방범,2,,360도 전방면,30,2015-06,042-288-2672,36.336794,127.399236,2019-01-04
"대전광역시 서구청",대전광역시 서구 변동서로 28번길 106(변동),대전광역시 서구 변동 254-244,생활방범,3,,360도 전방면,30,2015-06,042-288-2672,36.3318825,127.3662486,2019-01-04
"대전광역시 서구청",대전광역시 서구 동서대로1064번길 38(변동),대전광역시 서구 동변동 19-48,생활방범,3,,360도 전방면,30,2015-06,042-288-2672,36.328212,127.377873,2019-01-04
"대전광역시 서구청",대전광역시 서구 동서대로1079번길 14(내동),대전광역시 서구 내동 8-40,생활방범,3,,360도 전방면,30,2015-06,042-288-2672,36.3295675,127.3812795,2019-01-04
"대전광역시 서구청",대전광역시 서구 도마6길 117(도마동),대전광역시 서구 도마동 93-46,생활방범,3,,360도 전방면,30,2015-06,042-288-2672,36.318504,127.3822910,2019-01-04
"대전광역시 서구청",대전광역시 서구 용화5길 35(도마동),대전광역시 서구 도마동 24-27,생활방범,3,,360도 전방면,30,2015-06,042-288-2672,36.3206265,127.3756046,2019-01-04
"대전광역시 서구청",대전광역시 서구 도학2길 36(도마동),대전광역시 서구 도마동 47-23,생활방범,3,,360도 전방면,30,2015-06,042-288-2672,36.320672,127.372928,2019-01-04
"대전광역시 서구청",대전광역시 서구 배재로 81-48(도마동),대전광역시 서구 도마동 335-23,생활방범,2,,360도 전방면,30,2015-06,042-288-2672,36.3159893,127.3705823,2019-01-04
"대전광역시 서구청",대전광역시 서구 복수남로 19(복수동),대전광역시 서구 복수동 840,생활방범,3,,360도 전방면,30,2015-06,042-288-2672,36.2976586,127.3789808,2019-01-04
"대전광역시 서구청",대전광역시 서구 구봉로 13(관저동),대전광역시 서구 관저동 1140,생활방범,3,,360도 전방면,30,2015-06,042-288-2672,36.2981946,127.3253842,2019-01-04
"대전광역시 서구청",,대전광역시 서구 가수원동 609,생활방범,2,,360도 전방면,30,2015-06,042-288-2672,36.295761,127.352057,2019-01-04
"대전광역시 서구청",대전광역시 서구 정림로 77번길 33(정림동),대전광역시 서구 정림동 581,생활방범,2,,360도 전방면,30,2015-06,042-288-2672,36.3066012913,127.362858305,2019-01-04
"대전광역시 서구청",대전광역시 서구 정림서로 181(정림동),대전광역시 서구 정림동 402-1,생활방범,2,,360도 전방면,30,2015-06,042-288-2672,36.302131,127.3630440,2019-01-04
"대전광역시 서구청",대전광역시 서구 벌곡로 1324(가수원동),대전광역시 서구 곡로 1324(가수원동),생활방범,1,,360도 전방면,30,2015-09,042-288-2672,36.299109,127.355937,2019-01-04
"대전광역시 서구청",대전광역시 서구 도산로 308번길 40(가장동),대전광역시 서구 가장동 23-9,생활방범,3,,360도 전방면,30,2015-09,042-288-2672,36.3315739,127.3892143,2019-01-04
"대전광역시 서구청",대전광역시 서구 들말4길 35(가장동),대전광역시 서구 가장동 36-30,생활방범,3,,360도 전방면,30,2015-09,042-288-2672,36.3290170,127.3847990,2019-01-04
"대전광역시 서구청",대전광역시 서구 계룡로367번길 49(갈마동),대전광역시 서구 갈마1동 262-11,생활방범,3,,360도 전방면,30,2015-09,042-288-2672,36.354971,127.370039,2019-01-04
"대전광역시 서구청",대전광역시 서구 계룡로314번길 11(갈마동),대전광역시 서구 갈마동 298-1,생활방범,1,,360도 전방면,30,2015-09,042-288-2672,36.3530253,127.3632963,2019-01-04
"대전광역시 서구청",대전광역시 서구 신갈마로155번길 10(갈마동),대전광역시 서구 갈마1동 366-12,생활방범,3,,360도 전방면,30,2015-09,042-288-2672,36.349804,127.367312,2019-01-04
"대전광역시 서구청",대전광역시 서구 갈마로 147번길 64(갈마동),대전광역시 서구 갈마동 1373,생활방범,3,,360도 전방면,30,2015-09,042-288-2672,36.3410933,127.3772414,2019-01-04
"대전광역시 서구청",대전광역시 서구 갈마로 103번길 64(갈마동),대전광역시 서구 갈마동 348-32,생활방범,2,,360도 전방면,30,2015-09,042-288-2672,36.3457654,127.3717420,2019-01-04
"대전광역시 서구청",대전광역시 서구 계룡로 410-12(갈마동),대전광역시 서구 갈마동 344-35,생활방범,1,,360도 전방면,30,2015-09,042-288-2672,36.3498279,127.3728814,2019-01-04
"대전광역시 서구청",대전광역시 서구 구봉산북로 94번길 130 (관저2동),대전광역시 서구 관저2동 776-8,생활방범,1,,360도 전방면,30,2015-09,042-288-2672,36.2870728335,127.329701,2019-01-04
"대전광역시 서구청",대전광역시 서구 관저중로 95번길 99(관저2동),대전광역시 서구 관저2동 1110,생활방범,1,,360도 전방면,30,2015-09,042-288-2672,36.300978,127.334148,2019-01-04
"대전광역시 서구청",대전광역시 서구 도솔로305번길 23(괴정동),대전광역시 서구 괴정동 97-1,생활방범,2,,360도 전방면,30,2015-09,042-288-2672,36.3363407,127.3806500,2019-01-04
"대전광역시 서구청",대전광역시 서구 괴정로22번길 53(괴정동),대전광역시 서구 괴정동 119-34,생활방범,2,,360도 전방면,30,2015-09,042-288-2672,36.3389075597,127.378869642,2019-01-04
"대전광역시 서구청",대전광역시 서구 도솔로 336(괴정동),대전광역시 서구 괴정동 80-7,생활방범,1,,360도 전방면,30,2015-09,042-288-2672,36.3372280,127.3843980,2019-01-04
"대전광역시 서구청",대전광역시 서구 방앗간길 1072(원정동),대전광역시 서구 원정동 581-6,생활방범,1,,360도 전방면,30,2015-09,042-288-2672,36.2637339,127.2936030,2019-01-04
"대전광역시 서구청",대전광역시 서구 세점길 630(봉곡동),대전광역시 서구 봉곡동 305-10,생활방범,1,,360도 전방면,30,2015-09,042-288-2672,36.2754863,127.3205186,2019-01-04
"대전광역시 서구청",대전광역시 서구 안터길 3(신직동),대전광역시 서구 산직동 453-5,생활방범,2,,360도 전방면,30,2015-09,042-288-2672,36.2350054,127.3419416,2019-01-04
"대전광역시 서구청",,대전광역시 서구 흑석동 158,생활방범,2,,360도 전방면,30,2015-09,042-288-2672,36.260766,127.346239,2019-01-04
"대전광역시 서구청",대전광역시 서구 도솔로 251번길 75(내동),대전광역시 서구 내동 25-1,생활방범,2,,360도 전방면,30,2015-09,042-288-2672,36.3344308,127.374597,2019-01-04
"대전광역시 서구청",대전광역시 서구 동서대로 1030번길 28(내동),대전광역시 서구 내동 29-72,생활방범,2,,360도 전방면,30,2015-09,042-288-2672,36.3304103,127.3750609,2019-01-04
"대전광역시 서구청",대전광역시 서구 유등로 295(도마1동),대전광역시 서구 도마1동 86-49,생활방범,1,,360도 전방면,30,2015-09,042-288-2672,36.317607,127.3837240,2019-01-04
"대전광역시 서구청",대전광역시 서구 용화7길 42(도마1동),대전광역시 서구 도마1동45-5,생활방범,2,,360도 전방면,30,2015-09,042-288-2672,36.320613,127.374408,2019-01-04
"대전광역시 서구청",대전광역시 서구 도마로37번길 14(도마1동),대전광역시 서구 도마1동 39-1,생활방범,2,,360도 전방면,30,2015-09,042-288-2672,36.323592,127.374543,2019-01-04
"대전광역시 서구청",대전광역시 서구 제비네11길 15(도마동),대전광역시 서구 도마2동 148-9,생활방범,2,,360도 전방면,30,2015-09,042-288-2672,36.314923,127.377355,2019-01-04
"대전광역시 서구청",대전광역시 서구 제비네10길 66(도마2동),대전광역시 서구 도마2동 154-13,생활방범,1,,360도 전방면,30,2015-09,042-288-2672,36.314047,127.374519,2019-01-04
"대전광역시 서구청",대전광역시 서구 도림5길 19(도마동),대전광역시 서구,생활방범,2,,360도 전방면,30,2015-09,042-288-2672,36.311846,127.371756,2019-01-04
"대전광역시 서구청",대전광역시 서구 대덕대로 195(둔산2동),대전광역시 서구 둔산2동 1043,생활방범,2,,360도 전방면,30,2015-09,042-288-2672,36.350678,127.377345,2019-01-04
"대전광역시 서구청",대전광역시 서구 문정로170번길 46(둔산동),대전광역시 서구 둔산3동 2114,생활방범,1,,360도 전방면,30,2015-09,042-288-2672,36.350692,127.399706,2019-01-04
"대전광역시 서구청",대전광역시 서구 변정1길 24(변동),대전광역시 서구 변동 49-43,생활방범,2,,360도 전방면,30,2015-09,042-288-2672,36.3244455,127.3796805,2019-01-04
"대전광역시 서구청",대전광역시 서구 동서대로 1138번길(변동),대전광역시 서구 변동 2-2,생활방범,1,,360도 전방면,30,2015-09,042-288-2672,36.3274752,127.3866088,2019-01-04
"대전광역시 서구청",대전광역시 서구 변정2길 17(변동),대전광역시 서구 변동45-8,생활방범,2,,360도 전방면,30,2015-09,042-288-2672,36.3238633,127.3814114,2019-01-04
"대전광역시 서구청",대전광역시 서구 복수동로 81(복수동),대전광역시 서구 복수동 853,생활방범,2,,360도 전방면,30,2015-09,042-288-2672,36.2970285,127.3780873,2019-01-04
"대전광역시 서구청",대전광역시 서구 도산로 370번길 20(용문동),대전광역시 서구 용문동 260-1,생활방범,1,,360도 전방면,30,2015-09,042-288-2672,36.3366959,127.392767,2019-01-04
"대전광역시 서구청",대전광역시 서구 계룡로662번길 21(용문동),대전광역시 서구 용문동 256-15,생활방범,1,,360도 전방면,30,2015-09,042-288-2672,36.3360111,127.3940586,2019-01-04
"대전광역시 서구청",대전광역시 서구 계룡로 649번길 29(용문동),대전광역시 서구 용문동 242-15,생활방범,2,,360도 전방면,30,2015-09,042-288-2672,36.3388583,127.394959,2019-01-04
"대전광역시 서구청",대전광역시 서구 아랫강변1길 39(용문동),대전광역시 서구 용문동 238-16,생활방범,1,,360도 전방면,30,2015-09,042-288-2672,36.3365775,127.3969894,2019-01-04
"대전광역시 서구청",대전광역시 서구 한밭대로 592번길 3(월평동),대전광역시 서구,생활방범,1,,360도 전방면,30,2015-09,042-288-2672,36.357888,127.365727,2019-01-04
"대전광역시 서구청",대전광역시 서구 월평중로 13번길 10(월평동),대전광역시 서구 월평1동 907,생활방범,2,,360도 전방면,30,2015-09,042-288-2672,36.355672,127.363337,2019-01-04
"대전광역시 서구청",대전광역시 서구 정림서로 201-6(정림동),대전광역시 서구 정림동 416,생활방범,1,,360도 전방면,30,2015-09,042-288-2672,36.305814,127.362437,2019-01-04
"대전광역시 서구청",대전광역시 서구 남선로 60번길 9(탄방동),대전광역시 서구 탄방동1279,생활방범,1,,360도 전방면,30,2015-09,042-288-2672,36.3485683,127.399274,2019-01-04
"대전광역시 서구청",대전광역시 서구 남선로 31-24(탄방동),대전광역시 서구 탄방동1101,생활방범,1,,360도 전방면,30,2015-09,042-288-2672,36.3468422,127.3960101,2019-01-04
"대전광역시 서구청",대전광역시 서구 탄방로 83(탄방동),대전광역시 서구 탄방동 75-16,생활방범,2,,360도 전방면,30,2015-09,042-288-2672,36.3410049,127.3947752,2019-01-04
"대전광역시 서구청",,대전광역시 서구 둔산동 1524,생활방범,2,,360도 전방면,30,2015-11,042-288-2672,36.358352,127.399708,2019-01-04
"대전광역시 서구청",,대전광역시 서구 둔산동 2275,생활방범,3,,360도 전방면,30,2015-05,042-288-2672,36.238622,127.317439,2019-01-04
"대전광역시 서구청",대전광역시 서구 계룡로681,대전광역시 서구,생활방범,4,,360도 전방면,30,2015-05,042-288-2672,36.3360027,127.3963266,2019-01-04
"대전광역시 서구청",대전광역시 서구 계룡로509번길 31(탄방동),대전광역시 서구 탄방동 616,생활방범,2,,360도 전방면,30,2016-05,042-288-2672,36.3453848,127.3822372,2019-01-04
"대전광역시 서구청",대전광역시 서구 괴정로149번길 38(용문동),대전광역시 서구 용문동 276-8,생활방범,2,,360도 전방면,30,2016-05,042-288-2672,36.3364492,127.3898179,2019-01-04
"대전광역시 서구청",대전광역시 서구 도산로253번길 75(내동),대전광역시 서구 내동 17-1,생활방범,2,,360도 전방면,30,2016-05,042-288-2672,36.3321633,127.3795815,2019-01-04
"대전광역시 서구청",대전광역시 서구 괴정로 98(괴정동),대전광역시 서구 괴정동 77-22,생활방범,2,,360도 전방면,30,2016-05,042-288-2672,36.3385029,127.3838054,2019-01-04
"대전광역시 서구청",대전광역시 서구 가장로 61(괴정),대전광역시 서구 괴정동 86-4,생활방범,2,,360도 전방면,30,2016-05,042-288-2672,36.3370143,127.3824604,2019-01-04
"대전광역시 서구청",대전광역시 서구 대덕대로161번길 38(갈마동),대전광역시 서구 갈마동 914,생활방범,2,,360도 전방면,30,2016-05,042-288-2672,36.3489639,127.3744871,2019-01-04
"대전광역시 서구청",,대전광역시 서구 관저동 1616,생활방범,2,,360도 전방면,30,2016-05,042-288-2672,36.299371,127.3465497,2019-01-04
"대전광역시 서구청",,대전광역시 서구 관저동 209-2,생활방범,2,,360도 전방면,30,2016-05,042-288-2672,36.2957316,127.3438855,2019-01-04
"대전광역시 서구청",,대전광역시 서구 관저동 1594,생활방범,2,,360도 전방면,30,2016-05,042-288-2672,36.2938386,127.3412032,2019-01-04
"대전광역시 서구청",대전광역시 서구 복수동로52번길 55(복수동),대전광역시 서구 복수동 583/앞,생활방범,2,,360도 전방면,30,2016-06,042-288-2672,36.298908,127.376214,2019-01-04
"대전광역시 서구청",대전광역시 서구 복수동로52번길 55(복수동),대전광역시 서구 복수동 583/인근,생활방범,2,,360도 전방면,30,2016-06,042-288-2672,36.2988339,127.374116,2019-01-04
"대전광역시 서구청",대전광역시 서구 도학4길 38(도마동),대전광역시 서구 도마1동 51-46,생활방범,2,,360도 전방면,30,2016-06,042-288-2672,36.320691,127.3716821,2019-01-04
"대전광역시 서구청",대전광역시 서구 도마13길 47(도마동),대전광역시 서구 도마동 83-35,생활방범,2,,360도 전방면,30,2016-06,042-288-2672,36.3208089,127.3834937,2019-01-04
"대전광역시 서구청",대전광역시 서구 대신1길 14(도마동),대전광역시 서구 도마1동 182-1,생활방범,2,,360도 전방면,30,2016-06,042-288-2672,36.311234,127.382619,2019-01-04
"대전광역시 서구청",대전광역시 서구 바탕들3길 28(도마동),대전광역시 서구 도마동 176-6,생활방범,2,,360도 전방면,30,2016-06,042-288-2672,36.3128240,127.3817826,2019-01-04
"대전광역시 서구청",대전광역시 서구 제비네3길 23(도마동),대전광역시 서구 도마2동 146-3,생활방범,2,,360도 전방면,30,2016-06,042-288-2672,36.314242,127.377794,2019-01-04
"대전광역시 서구청",대전광역시 서구 대신1길 14(도마동),대전광역시 서구 도마2동 185-2,생활방범,2,,360도 전방면,30,2016-06,042-288-2672,36.3117959,127.378987,2019-01-04
"대전광역시 서구청",대전광역시 서구 배재로91번길 54(도마동),대전광역시 서구 도마동 330-19,생활방범,2,,360도 전방면,30,2016-06,042-288-2672,36.317142,127.3685547,2019-01-04
"대전광역시 서구청",대전광역시 서구 배재로91번길 72(도마동),대전광역시 서구 도마동 330-30,생활방범,2,,360도 전방면,30,2016-06,042-288-2672,36.3180807,127.3687970,2019-01-04
"대전광역시 서구청",,대전광역시 서구 괴곡동 169-1,생활방범,2,,360도 전방면,30,2016-06,042-288-2672,36.238622,127.317439,2019-01-04
"대전광역시 서구청",대전광역시 서구 계백로 1310-16,대전광역시 서구 정림동 16-18,생활방범,2,,360도 전방면,30,2016-06,042-288-2672,36.308046,127.3684726,2019-01-04
"대전광역시 서구청",대전광역시 서구 괴곡길 158(괴곡동),대전광역시 서구 괴곡동 338-4,생활방범,2,,360도 전방면,30,2016-06,042-288-2672,36.289878,127.361046,2019-01-04
"대전광역시 서구청",대전광역시 서구 도마로 115(변동),대전광역시 서구 변동 68-23,생활방범,2,,360도 전방면,30,2016-06,042-288-2672,36.321402,127.3829649,2019-01-04
"대전광역시 서구청",대전광역시 서구 서구 중반9길 16,대전광역시 서구 변동 2-30,생활방범,2,,360도 전방면,30,2016-06,042-288-2672,36.3267162386,127.386831,2019-01-04
"대전광역시 서구청",대전광역시 서구 중반4길 42(변동),대전광역시 서구 변동 10-1,생활방범,2,,360도 전방면,30,2016-06,042-288-2672,36.326899,127.3829546,2019-01-04
"대전광역시 서구청",대전광역시 서구 변정4길 26(변동),대전광역시 서구 변동 67-1,생활방범,2,,360도 전방면,30,2016-06,042-288-2672,36.3223662,127.3840060,2019-01-04
"대전광역시 서구청",대전광역시 서구 도솔로499번길 56(변동),대전광역시 서구 용문동 214-6,생활방범,2,,360도 전방면,30,2016-06,042-288-2672,36.3429378,127.4006155,2019-01-04
"대전광역시 서구청",대전광역시 서구 아랫강변6길 77(용문동),대전광역시 서구 용문동 228-7,생활방범,2,,360도 전방면,30,2016-06,042-288-2672,36.3406945,127.3973721,2019-01-04
"대전광역시 서구청",대전광역시 서구 도솔로519번길 9(용문동),대전광역시 서구 용문동 221-38,생활방범,2,,360도 전방면,30,2016-06,042-288-2672,36.340299,127.4001079,2019-01-04
"대전광역시 서구청",대전광역시 서구 괴정로165번길 18(용문동),대전광역시 서구 용문동 278-38,생활방범,2,,360도 전방면,30,2016-06,042-288-2672,36.3347519,127.390326,2019-01-04
"대전광역시 서구청",대전광역시 서구 큰마을5길 23(탄방동),대전광역시 서구 탄방동 511-51,생활방범,2,,360도 전방면,30,2016-06,042-288-2672,36.342049,127.378621,2019-01-04
"대전광역시 서구청",대전광역시 서구 도산로431번길 26(탄방동),대전광역시 서구 탄방동 70-10,생활방범,2,,360도 전방면,30,2016-06,042-288-2672,36.342171,127.3961419,2019-01-04
"대전광역시 서구청",대전광역시 서구 탄방로 50-30(탄방동),대전광역시 서구 탄방동 57-34,생활방범,2,,360도 전방면,30,2016-06,042-288-2672,36.342249801,127.390969628,2019-01-04
"대전광역시 서구청",대전광역시 서구 남선로9번길 47-2(탄방동),대전광역시 서구 탄방동 952,생활방범,2,,360도 전방면,30,2016-06,042-288-2672,36.3452678,127.394928,2019-01-04
"대전광역시 서구청",대전광역시 서구 남선로59번길 28(탄방동),대전광역시 서구 탄방동 1188,생활방범,2,,360도 전방면,30,2016-06,042-288-2672,36.348569,127.396581,2019-01-04
"대전광역시 서구청",대전광역시 서구 문정로2번길 33(탄방동),대전광역시 서구 탄방동 636,생활방범,2,,360도 전방면,30,2016-06,042-288-2672,36.3440785,127.3819802,2019-01-04
"대전광역시 서구청",,대전광역시 서구 둔산동 2155,생활방범,2,,360도 전방면,30,2016-06,042-288-2672,36.356585,127.401331,2019-01-04
"대전광역시 서구청",,대전광역시 서구 둔산동 1838,생활방범,2,,360도 전방면,30,2016-06,042-288-2672,36.351128,127.398857,2019-01-04
"대전광역시 서구청",대전광역시 서구 갈마로147번길 22(괴정동),대전광역시 서구 괴정동 126-11,생활방범,2,,360도 전방면,30,2016-06,042-288-2672,36.340986,127.3748465,2019-01-04
"대전광역시 서구청",대전광역시 서구 계룡로546번길 7-3(괴정동),대전광역시 서구 괴정동 7-28,생활방범,2,,360도 전방면,30,2016-06,042-288-2672,36.3424038,127.3843852,2019-01-04
"대전광역시 서구청",대전광역시 서구 도솔로308번길 3(괴정동),대전광역시 서구 괴정동 88-18,생활방범,2,,360도 전방면,30,2016-06,042-288-2672,36.335395,127.3829947,2019-01-04
"대전광역시 서구청",대전광역시 서구 유등로465번길 48(가장동),대전광역시 서구 가장동 18-2,생활방범,2,,360도 전방면,30,2016-06,042-288-2672,36.332651,127.3904487,2019-01-04
"대전광역시 서구청",대전광역시 서구 갈마로295번길 26(가장동),대전광역시 서구 가장동 43-9,생활방범,2,,360도 전방면,30,2016-06,042-288-2672,36.3315497,127.386215,2019-01-04
"대전광역시 서구청",대전광역시 서구 도솔로279번길 49(내동),대전광역시 서구 내동 38-5,생활방범,2,,360도 전방면,30,2016-06,042-288-2672,36.335674,127.3778872,2019-01-04
"대전광역시 서구청",대전광역시 서구 동서대로998번길 18(내동),대전광역시 서구 내동 184-2,생활방범,2,,360도 전방면,30,2016-06,042-288-2672,36.3324411,127.3725363,2019-01-04
"대전광역시 서구청",대전광역시 서구 배재로262번길 18(내동),대전광역시 서구 내동 186-53,생활방범,2,,360도 전방면,30,2016-06,042-288-2672,36.3314266,127.372085,2019-01-04
"대전광역시 서구청",대전광역시 서구 계룡로342번길 95(갈마동),대전광역시 서구 갈마1동 320-14,생활방범,2,,360도 전방면,30,2016-06,042-288-2672,36.349765,127.366406,2019-01-04
"대전광역시 서구청",대전광역시 서구 계룡로342번길 115(갈마동),대전광역시 서구 갈마1동 336-25,생활방범,2,,360도 전방면,30,2016-06,042-288-2672,36.348648,127.366544,2019-01-04
"대전광역시 서구청",대전광역시 서구 신갈마로240번길 34(갈마동),대전광역시 서구 갈마동 264-7,생활방범,2,,360도 전방면,30,2016-06,042-288-2672,36.3548848,127.3713557,2019-01-04
"대전광역시 서구청",대전광역시 서구 신갈마로127번길 88(갈마동),대전광역시 서구 갈마동 428-7,생활방범,2,,360도 전방면,30,2016-06,042-288-2672,36.3429988,127.3658099,2019-01-04
"대전광역시 서구청",대전광역시 서구 신갈마로 75-6(갈마동),대전광역시 서구 갈마동 427-26,생활방범,2,,360도 전방면,30,2016-06,042-288-2672,36.3412268,127.3661205,2019-01-04
"대전광역시 서구청",대전광역시 서구 갈마역로25번길 13(갈마동),대전광역시 서구 갈마1동 845,생활방범,2,,360도 전방면,30,2016-06,042-288-2672,36.352738,127.373626,2019-01-04
"대전광역시 서구청",대전광역시 서구 갈마중로28번길 24-8(갈마동),대전광역시 서구 갈마2동 348-42,생활방범,2,,360도 전방면,30,2016-06,042-288-2672,36.346622,127.371905,2019-01-04
"대전광역시 서구청",대전광역시 서구  갈마로147번길 5-8(갈마동),대전광역시 서구 갈마2동 1275,생활방범,2,,360도 전방면,30,2016-06,042-288-2672,36.341444,127.374369,2019-01-04
"대전광역시 서구청",대전광역시 서구 계룡로339번길 7(월평동),대전광역시 서구 월평동 770,생활방범,2,,360도 전방면,30,2016-06,042-288-2672,36.3546561,127.3667794,2019-01-04
"대전광역시 서구청",대전광역시 서구 월평서로25번길 65(월평동),대전광역시 서구 월평동 1372,생활방범,2,,360도 전방면,30,2016-06,042-288-2672,36.3535490,127.354431,2019-01-04
"대전광역시 서구청",대전광역시 서구 만년남로3번길 92-14(만년동),대전광역시 서구 만년동 36,생활방범,2,,360도 전방면,30,2016-06,042-288-2672,36.366053,127.3714977,2019-01-04
"대전광역시 서구청",대전광역시 서구 벌곡로1328번안길 124-33(가수원동),대전광역시 서구 가수원동547-52,생활방범,2,,360도 전방면,30,2016-06,042-288-2672,36.298274,127.357432,2019-01-04
"대전광역시 서구청",,대전광역시 서구 가수원동 839,생활방범,2,,360도 전방면,30,2016-06,042-288-2672,36.238622,127.317439,2019-01-04
"대전광역시 서구청",대전광역시 서구 가수원로 17-19(가수원동),대전광역시 서구 가수원동 813-7,생활방범,2,,360도 전방면,30,2016-06,042-288-2672,36.2965247,127.3546152,2019-01-04
"대전광역시 서구청",대전광역시 서구 벌곡로 1369-6(가수원동),대전광역시 서구 가수원동 766-10,생활방범,2,,360도 전방면,30,2016-06,042-288-2672,36.3033795,127.3534419,2019-01-04
"대전광역시 서구청",,대전광역시 서구 관저동 1890,생활방범,2,,360도 전방면,30,2016-06,042-288-2672,36.3048974141,127.336583332,2019-01-04
"대전광역시 서구청",대전광역시 서구 관저동로105번길 86(관저동),대전광역시 서구 관저동 1007,생활방범,2,,360도 전방면,30,2016-06,042-288-2672,36.3010535,127.335811,2019-01-04
"대전광역시 서구청",대전광역시 서구 구봉산북로 184-33(관저동),대전광역시 서구 관저동 300-2,생활방범,2,,360도 전방면,30,2016-06,042-288-2672,36.290825,127.3416703,2019-01-04
"대전광역시 서구청",,대전광역시 서구 우명동 320,생활방범,2,,360도 전방면,30,2016-06,042-288-2672,36.237481,127.285671,2019-01-04
"대전광역시 서구청",대전광역시 서구 영골길 82-40(오동),대전광역시 서구 오동 352-1,생활방범,2,,360도 전방면,30,2016-06,042-288-2672,36.2271632,127.3097342,2019-01-04
"대전광역시 서구청",,대전광역시 서구 평촌동 428-1,생활방범,2,,360도 전방면,30,2016-06,042-288-2672,36.236433,127.307286,2019-01-04
"대전광역시 서구청",대전광역시 서구 구봉로 433(정림동),대전광역시 서구 정림동 680,생활방범,2,,360도 전방면,30,2016-06,042-288-2672,36.3009000,127.367002,2019-01-04
"대전광역시 서구청",,대전광역시 서구 복수동 781,생활방범,2,,360도 전방면,30,2016-11,042-288-2672,36.2977305,127.3778379,2019-01-04
"대전광역시 서구청",,대전광역시 서구 복수동 819,생활방범,2,,360도 전방면,30,2016-11,042-288-2672,36.2962086,127.3760167,2019-01-04
"대전광역시 서구청",대전광역시 서구 대신4길 96(도마동),대전광역시 서구 도마1동 183-4,생활방범,2,,360도 전방면,30,2016-11,042-288-2672,36.3112515,127.3799837,2019-01-04
"대전광역시 서구청",대전광역시 서구 바탕들5길 11(도마동),대전광역시 서구 도마1동 137-11,생활방범,2,,360도 전방면,30,2016-11,042-288-2672,36.3141366,127.3843611,2019-01-04
"대전광역시 서구청",대전광역시 서구 도마8길 10(도마동),대전광역시 서구 도마1동 97-13,생활방범,2,,360도 전방면,30,2016-11,042-288-2672,36.3185555,127.3787914,2019-01-04
"대전광역시 서구청",대전광역시 서구 도마로 60(도마동),대전광역시 서구 도마1동 69-4,생활방범,2,,360도 전방면,30,2016-11,042-288-2672,36.3222718,127.3765518,2019-01-04
"대전광역시 서구청",대전광역시 서구 도솔6길 37(도마동),대전광역시 서구 도마2동 157-9,생활방범,2,,360도 전방면,30,2016-11,042-288-2672,36.315515,127.3719712,2019-01-04
"대전광역시 서구청",대전광역시 서구 사마7길 42(도마동),대전광역시 서구 도마2동 124-1,생활방범,2,,360도 전방면,30,2016-11,042-288-2672,36.3173198,127.375963,2019-01-04
"대전광역시 서구청",대전광역시 서구 배재로91번길 19(도마동),대전광역시 서구 도마2동 328-7,생활방범,2,,360도 전방면,30,2016-11,042-288-2672,36.3168171,127.3700079,2019-01-04
"대전광역시 서구청",대전광역시 서구 사마7길 10(도마동),대전광역시 서구 도마2동 124-7,생활방범,2,,360도 전방면,30,2016-11,042-288-2672,36.3167757,127.3742062,2019-01-04
"대전광역시 서구청",,대전광역시 서구 도마2동 산 7-9,생활방범,1,,360도 전방면,30,2016-11,042-288-2672,36.3229473,127.3607013,2019-01-04
"대전광역시 서구청",대전광역시 서구 계백로1286번길 49(정림동),대전광역시 서구 정림동 125,생활방범,2,,360도 전방면,30,2016-11,042-288-2672,36.3058396,127.3670438,2019-01-04
"대전광역시 서구청",대전광역시 서구 동서대로1006번길 92(변동),대전광역시 서구 변동 247-1,생활방범,2,,360도 전방면,30,2016-11,042-288-2672,36.3291140,127.3712216,2019-01-04
"대전광역시 서구청",대전광역시 서구 도마로57번길 81-2(변동),대전광역시 서구 변동 53-30,생활방범,2,,360도 전방면,30,2016-11,042-288-2672,36.3259409,127.3765374,2019-01-04
"대전광역시 서구청",대전광역시 서구 중반8길 98(변동),대전광역시 서구 변동 2-10,생활방범,2,,360도 전방면,30,2016-11,042-288-2672,36.3273603,127.3857824,2019-01-04
"대전광역시 서구청",대전광역시 서구 아랫강변3길 23(용문동),대전광역시 서구 용문동 245-15,생활방범,2,,360도 전방면,30,2016-11,042-288-2672,36.3374656,127.3960782,2019-01-04
"대전광역시 서구청",대전광역시 서구 유등로 591(용문동),대전광역시 서구 용문동 222-25,생활방범,2,,360도 전방면,30,2016-11,042-288-2672,36.3398024,127.4011731,2019-01-04
"대전광역시 서구청",대전광역시 서구 남선로9번길 5(탄방동),대전광역시 서구 탄방동 65-24,생활방범,2,,360도 전방면,30,2016-11,042-288-2672,36.3442873,127.3956223,2019-01-04
"대전광역시 서구청",대전광역시 서구 계룡로603번길 39(탄방동),대전광역시 서구 탄방동 58-19,생활방범,2,,360도 전방면,30,2016-11,042-288-2672,36.3421147,127.3917719,2019-01-04
"대전광역시 서구청",대전광역시 서구 둔지로 16(둔산동),대전광역시 서구 둔산2동 1067,생활방범,2,,360도 전방면,30,2016-11,042-288-2672,36.3510546,127.3766685,2019-01-04
"대전광역시 서구청",,대전광역시 서구 둔산동 1544,생활방범,2,,360도 전방면,30,2016-11,042-288-2672,36.3535097,127.3849377,2019-01-04
"대전광역시 서구청",대전광역시 서구 괴정로98번길 87(괴정동),대전광역시 서구 괴정동 94-31,생활방범,2,,360도 전방면,30,2016-11,042-288-2672,36.3357362601,127.380872539,2019-01-04
"대전광역시 서구청",대전광역시 서구 도솔로279번길 124(괴정동),대전광역시 서구 괴정동153-6,생활방범,2,,360도 전방면,30,2016-11,042-288-2672,36.3384348,127.3748051,2019-01-04
"대전광역시 서구청",대전광역시 서구 도솔로319번길 26(괴정동),대전광역시 서구 괴정동 70-16,생활방범,2,,360도 전방면,30,2016-11,042-288-2672,36.3381810,127.3816892,2019-01-04
"대전광역시 서구청",대전광역시 서구 괴정로8번길 100(괴정동),대전광역시 서구 괴정동 110-22,생활방범,2,,360도 전방면,30,2016-11,042-288-2672,36.3366544,127.3791548,2019-01-04
"대전광역시 서구청",대전광역시 서구 도산로314번길 13(가장동),대전광역시 서구 가장동 54-43,생활방범,2,,360도 전방면,30,2016-11,042-288-2672,36.3335070,127.3883321,2019-01-04
"대전광역시 서구청",대전광역시 서구 동서대로1022번길 7-16(내동),대전광역시 서구 내동 29-40,생활방범,2,,360도 전방면,30,2016-11,042-288-2672,36.3312842,127.3748301,2019-01-04
"대전광역시 서구청",대전광역시 서구 도솔로 251번길 56(내동),대전광역시 서구 내동 40-49,생활방범,2,,360도 전방면,30,2016-11,042-288-2672,36.3339238,127.3757152,2019-01-04
"대전광역시 서구청",대전광역시 서구 신갈마로209번길 90(갈마동),대전광역시 서구 갈마1동 298-22,생활방범,2,,360도 전방면,30,2016-11,042-288-2672,36.3521351,127.3632313,2019-01-04
"대전광역시 서구청",대전광역시 서구 신갈마로211번길 58(갈마동),대전광역시 서구 갈마1동 290-12,생활방범,2,,360도 전방면,30,2016-11,042-288-2672,36.3522421,127.3646917,2019-01-04
"대전광역시 서구청",,대전광역시 서구 갈마1동 413-2,생활방범,2,,360도 전방면,30,2016-11,042-288-2672,36.3459541,127.3642404,2019-01-04
"대전광역시 서구청",대전광역시 서구 대덕대로127번길 11(갈마동),대전광역시 서구 갈마2동 1189,생활방범,2,,360도 전방면,30,2016-11,042-288-2672,36.3450003,127.3742598,2019-01-04
"대전광역시 서구청",대전광역시 서구 갑천도시고속도로 1987(월평동),대전광역시 서구 월평1동 75-1,생활방범,2,,360도 전방면,30,2016-11,042-288-2672,36.3411108,127.3534459,2019-01-04
"대전광역시 서구청",대전광역시 서구 만년남로3번길 25(만년동),대전광역시 서구 만년동 213,생활방범,2,,360도 전방면,30,2016-11,042-288-2672,36.3652677,127.3752381,2019-01-04
"대전광역시 서구청",대전광역시 서구 벌곡로 1321-10(가수원동),대전광역시 서구 가수원동 793-4,생활방범,2,,360도 전방면,30,2016-11,042-288-2672,36.2993675,127.3551303,2019-01-04
"대전광역시 서구청",대전광역시 서구 가수원중로65번길 19(가수원동),대전광역시 서구 가수원동 801-4,생활방범,2,,360도 전방면,30,2016-11,042-288-2672,36.2988060,127.3524954,2019-01-04
"대전광역시 서구청",,대전광역시 서구 관저동 875-72,생활방범,2,,360도 전방면,30,2016-11,042-288-2672,36.2935928,127.3214793,2019-01-04
"대전광역시 서구청",,대전광역시 서구 흑성동 62,생활방범,2,,360도 전방면,30,2016-11,042-288-2672,36.2678589,127.3521128,2019-01-04
"대전광역시 서구청",,대전광역시 서구 원정동 1062,생활방범,2,,360도 전방면,30,2016-11,042-288-2672,36.2577883,127.3015425,2019-01-04
"대전광역시 서구청",대전광역시 서구 장안로 420(장안동),대전광역시 서구 장안동 281-8,생활방범,3,,360도 전방면,30,2016-11,042-288-2672,36.2221699,127.3426285,2019-01-04
"대전광역시 서구청",,대전광역시 서구 흑석동 738,생활방범,2,,360도 전방면,30,2016-11,042-288-2672,36.2753656,127.3440038,2019-01-04
"대전광역시 서구청",,대전광역시 서구 정림동 402-3,생활방범,2,,360도 전방면,30,2016-12,042-288-2672,36.238622,127.317439,2019-01-04
"대전광역시 서구청",,대전광역시 서구 만년동 414,생활방범,4,,360도 전방면,30,2016-01,042-288-2672,36.369412,127.379448,2019-01-04
"대전광역시 서구청",대전광역시 서구 도산로 177,대전광역시 서구 변동 60-3,생활방범,3,,360도 전방면,30,2016-01,042-288-2672,36.3132605,127.3832402,2019-01-04
"대전광역시 서구청",대전광역시 서구 배재로 117,대전광역시 서구 도마2동 359-12,생활방범,2,,360도 전방면,30,2016-01,042-288-2672,36.318522,127.3709070,2019-01-04
"대전광역시 서구청",대전광역시 서구 가수원로7번길 2,대전광역시 서구 가수원동 810-8,생활방범,3,,360도 전방면,30,2017-08,042-288-2672,36.297455,127.355412,2019-01-04
"대전광역시 서구청",대전광역시 서구 가수원동 계백로 1166-7,대전광역시 서구 가수원동 764-10,생활방범,3,,360도 전방면,30,2017-08,042-288-2672,36.3045913,127.3530277,2019-01-04
"대전광역시 서구청",대전광역시 서구 (가장동 40-4번지),대전광역시 서구 가장동 40-4번지,생활방범,2,,360도 전방면,30,2017-08,042-288-2672,36.3299014,127.3850304,2019-01-04
"대전광역시 서구청",대전광역시 서구 월평동로26번길 7(갈마동),대전광역시 서구 갈마1동 724,생활방범,2,,360도 전방면,30,2017-08,042-288-2672,36.357606,127.368941,2019-01-04
"대전광역시 서구청",대전광역시 서구 대덕대로162번길 23(갈마동),대전광역시 서구 갈마2동 1432,생활방범,2,,360도 전방면,30,2017-08,042-288-2672,36.347204,127.376994,2019-01-04
"대전광역시 서구청",대전광역시 서구 관저동로 99(관저동),대전광역시 서구 관저2동 1287,생활방범,3,,360도 전방면,30,2017-08,042-288-2672,36.301175,127.340198,2019-01-04
"대전광역시 서구청",대전광역시 서구 괴정로8번길 41(괴정동),대전광역시 서구 괴정동 124-2,생활방범,3,,360도 전방면,30,2017-08,042-288-2672,36.3387183,127.377039,2019-01-04
"대전광역시 서구청",대전광역시 서구 가장로 15(괴정동),대전광역시 서구 괴정동 120,생활방범,2,,360도 전방면,30,2017-08,042-288-2672,36.3400127,127.3791505,2019-01-04
"대전광역시 서구청",,대전광역시 서구 장안동 125-2번지,생활방범,2,,360도 전방면,30,2017-08,042-288-2672,36.231794,127.349358,2019-01-04
"대전광역시 서구청",,대전광역시 서구 평촌동 171-27번지,생활방범,2,,360도 전방면,30,2017-08,042-288-2672,36.238606,127.318711,2019-01-04
"대전광역시 서구청",대전광역시 서구 동서대로973번길 7(내동),대전광역시 서구 내동 162-11,생활방범,3,,360도 전방면,30,2017-08,042-288-2672,36.3347451,127.3707345,2019-01-04
"대전광역시 서구청",대전광역시 서구 변동중로 9-17(도마동),대전광역시 서구 도마1동 14-11번지,생활방범,2,,360도 전방면,30,2017-08,042-288-2672,36.327872,127.371231,2019-01-04
"대전광역시 서구청",대전광역시 서구 도마1동 134-92번지,대전광역시 서구 도마1동 134-92,생활방범,2,,360도 전방면,30,2017-08,042-288-2672,36.315262,127.381765,2019-01-04
"대전광역시 서구청",대전광역시 서구 도마6길 38(도마동),대전광역시 서구 도마1동 89-1,생활방범,2,,360도 전방면,30,2017-08,042-288-2672,36.317395,127.379195,2019-01-04
"대전광역시 서구청",대전광역시 서구 도림6길 69(도마동),대전광역시 서구 도마2동 550-8,생활방범,3,,360도 전방면,30,2017-08,042-288-2672,36.311951,127.369147,2019-01-04
"대전광역시 서구청",대전광역시 서구 제비네6길 28(도마동),대전광역시 서구 도마2동 171-40,생활방범,3,,360도 전방면,30,2017-08,042-288-2672,36.312766,127.376929,2019-01-04
"대전광역시 서구청",대전광역시 서구 둔산남로 107(둔산동),대전광역시 서구 둔산1동 1494,생활방범,3,,360도 전방면,30,2017-08,042-288-2672,36.349059,127.389181,2019-01-04
"대전광역시 서구청",대전광역시 서구 대덕대로176번길59(둔산동),대전광역시 서구 둔산2동 1135,생활방범,3,,360도 전방면,30,2017-08,042-288-2672,36.346557,127.378906,2019-01-04
"대전광역시 서구청",대전광역시 서구 둔산대로117번길56(만년동),대전광역시 서구 만년동 385,생활방범,3,,360도 전방면,30,2017-08,042-288-2672,36.3674508,127.3825788,2019-01-04
"대전광역시 서구청",대전광역시 서구 중반3길 9(변동),대전광역시 서구 변동 12-16,생활방범,3,,360도 전방면,30,2017-08,042-288-2672,36.3268483,127.3810860,2019-01-04
"대전광역시 서구청",대전광역시 서구 변동중로78번길 25(변동),대전광역시 서구 변동 14-32,생활방범,3,,360도 전방면,30,2017-08,042-288-2672,36.3292945,127.3788535,2019-01-04
"대전광역시 서구청",대전광역시 서구 아랫강변10길 54(용문동),대전광역시 서구 용문동 224-42,생활방범,2,,360도 전방면,30,2017-08,042-288-2672,36.3386515,127.3991968,2019-01-04
"대전광역시 서구청",대전광역시 서구 월평서로6번길 16(월평동),대전광역시 서구 월평동 1092,생활방범,2,,360도 전방면,30,2017-08,042-288-2672,36.3542271,127.3596833,2019-01-04
"대전광역시 서구청","대전광역시 서구 원평동로45(월평동,진달래아파트)1",대전광역시 서구 월평동 312-1,생활방범,3,,360도 전방면,30,2017-08,042-288-2672,36.3590644,127.3668406,2019-01-04
"대전광역시 서구청",,대전광역시 서구 괴곡동 960-2,생활방범,2,,360도 전방면,30,2017-08,042-288-2672,36.238622,127.317439,2019-01-04
"대전광역시 서구청",대전광역시 서구 계룡로585번길 29(탄방동),대전광역시 서구 탄방동 55-23,생활방범,3,,360도 전방면,30,2017-08,042-288-2672,36.3431199,127.3899418,2019-01-04
"대전광역시 서구청",,대전광역시 서구 가장동 38-11,생활방범,2,,360도 전방면,30,2017-12,042-288-2672,36.328939,127.381914,2019-01-04
"대전광역시 서구청",,대전광역시 서구 월평동 1503-1,생활방범,2,,360도 전방면,30,2017-12,042-288-2672,36.3582475255,127.364729001,2019-01-04
"대전광역시 서구청",,대전광역시 서구 월평동 1503-1,생활방범,4,,360도 전방면,30,2017-06,042-288-2672,36.3582475255,127.364729001,2019-01-04
"대전광역시 서구청",대전광역시 서구 도산로 182,대전광역시 서구 변동 49-11,생활방범,3,,360도 전방면,30,2017-06,042-288-2672,36.324429,127.3789533,2019-01-04
"대전광역시 서구청",대전광역시 서구 도솔로 377,대전광역시 서구 괴정동 6-4,생활방범,2,,360도 전방면,30,2017-06,042-288-2672,36.3404279,127.3874731,2019-01-04
"대전광역시 서구청",대전광역시 서구 계백로 1307번길 75-1(정림동),대전광역시 서구 정림동 산 23-3,생활방범,2,,360도 전방면,30,2018-03,042-288-2672,36.3115585,127.3660846,2019-01-04
"대전광역시 서구청",대전광역시 서구 계백로 1313(정림동),대전광역시 서구 정림동 5-28,생활방범,2,,360도 전방면,30,2018-03,042-288-2672,36.3092307,127.3681546,2019-01-04
"대전광역시 서구청",대전광역시 서구 정림로66번길 15(정림동),대전광역시 서구 정림동 550,생활방범,2,,360도 전방면,30,2018-03,042-288-2672,36.3065236,127.365958,2019-01-04
"대전광역시 서구청",대전광역시 서구 정림로 56-9(정림동),대전광역시 서구 정림동 599,생활방범,2,,360도 전방면,30,2018-03,042-288-2672,36.3055544,127.365903,2019-01-04
"대전광역시 서구청",대전광역시 서구 관저남로 60(관저2동),대전광역시 서구 관저2동 1592,생활방범,2,,360도 전방면,30,2018-05,042-288-2672,36.2949503941,127.341446,2019-01-04
"대전광역시 서구청",대전광역시 서구 가수원중로 57번길 56,대전광역시 서구 가수원동 804-9,생활방범,2,,360도 전방면,30,2018-05,042-288-2672,36.297971,127.3534191,2019-01-04
"대전광역시 서구청",대전광역시 서구 배재로 107-9,대전광역시 서구 도마2동 333-19,생활방범,2,,360도 전방면,30,2018-05,042-288-2672,36.3180089,127.3707365,2019-01-04
"대전광역시 서구청",대전광역시 서구 가수원중로 23,대전광역시 서구 가수원동 795-2,생활방범,2,,360도 전방면,30,2018-05,042-288-2672,36.300175,127.3539450,2019-01-04
"대전광역시 서구청",대전광역시 서구 도마 1길 15,대전광역시 서구 도마 1동 142-56,생활방범,2,,360도 전방면,30,2018-06,042-288-2672,36.3142211,127.3809430,2019-01-04
